<?xml version='1.0' encoding='UTF-8'?><stations lastUpdate="1403603956671" version="2.0"><station><id>1</id><name>Jarvis St/ Carleton St</name><terminalName>7055</terminalName><lastCommWithServer>1403603150081</lastCommWithServer><lat>43.66207</lat><long>-79.37617</long><installed>true</installed><locked>false</locked><installDate/><removalDate/><temporary>false</temporary><public>true</public><nbBikes>8</nbBikes><nbEmptyDocks>4</nbEmptyDocks><latestUpdateTime>1403601291674</latestUpdateTime></station><station><id>5</id><name>Church St/ Alexander St</name><terminalName>7044</terminalName><lastCommWithServer>1403603574269</lastCommWithServer><lat>43.6636</lat><long>-79.3806</long><installed>true</installed><locked>false</locked><installDate/><removalDate/><temporary>false</temporary><public>true</public><nbBikes>11</nbBikes><nbEmptyDocks>3</nbEmptyDocks><latestUpdateTime>1403603572734</latestUpdateTime></station><station><id>6</id><name>Gould St/ Mutual St</name><terminalName>7028</terminalName><lastCommWithServer>1403603912739</lastCommWithServer><lat>43.6582</lat><long>-79.3768</long><installed>true</installed><locked>false</locked><installDate/><removalDate/><temporary>false</temporary><public>true</public><nbBikes>9</nbBikes><nbEmptyDocks>22</nbEmptyDocks><latestUpdateTime>1403585229638</latestUpdateTime></station><station><id>7</id><name>St George St / Bloor St W</name><terminalName>7002</terminalName><lastCommWithServer>1403603368920</lastCommWithServer><lat>43.667333</lat><long>-79.399429</long><installed>true</installed><locked>false</locked><installDate/><removalDate/><temporary>false</temporary><public>true</public><nbBikes>14</nbBikes><nbEmptyDocks>1</nbEmptyDocks><latestUpdateTime>1403585229902</latestUpdateTime></station><station><id>8</id><name>Madison Ave / Bloor St W</name><terminalName>7003</terminalName><lastCommWithServer>1403603133528</lastCommWithServer><lat>43.667158</lat><long>-79.402761</long><installed>true</installed><locked>false</locked><installDate/><removalDate/><temporary>false</temporary><public>true</public><nbBikes>12</nbBikes><nbEmptyDocks>2</nbEmptyDocks><latestUpdateTime>1403586222607</latestUpdateTime></station><station><id>9</id><name>King St W / Spadina Ave</name><terminalName>7010</terminalName><lastCommWithServer>1403603864413</lastCommWithServer><lat>43.645323</lat><long>-79.395003</long><installed>true</installed><locked>false</locked><installDate/><removalDate/><temporary>false</temporary><public>true</public><nbBikes>13</nbBikes><nbEmptyDocks>6</nbEmptyDocks><latestUpdateTime>1403588425136</latestUpdateTime></station><station><id>10</id><name>Elizabeth St / Edward St</name><terminalName>7012</terminalName><lastCommWithServer>1403603862704</lastCommWithServer><lat>43.656152</lat><long>-79.385225</long><installed>true</installed><locked>false</locked><installDate/><removalDate/><temporary>false</temporary><public>true</public><nbBikes>2</nbBikes><nbEmptyDocks>12</nbEmptyDocks><latestUpdateTime>1403597892547</latestUpdateTime></station><station><id>11</id><name>Scott St / The Esplanade</name><terminalName>7013</terminalName><lastCommWithServer>1403603226019</lastCommWithServer><lat>43.64656</lat><long>-79.375274</long><installed>true</installed><locked>false</locked><installDate/><removalDate/><temporary>false</temporary><public>true</public><nbBikes>17</nbBikes><nbEmptyDocks>2</nbEmptyDocks><latestUpdateTime>1403600491814</latestUpdateTime></station><station><id>12</id><name>Ferry Ramp / Queens Quay W</name><terminalName>7016</terminalName><lastCommWithServer>1403603686036</lastCommWithServer><lat>43.640823</lat><long>-79.376265</long><installed>true</installed><locked>false</locked><installDate/><removalDate/><temporary>false</temporary><public>true</public><nbBikes>15</nbBikes><nbEmptyDocks>6</nbEmptyDocks><latestUpdateTime>1403587143535</latestUpdateTime></station><station><id>13</id><name>Temperance St / Yonge St</name><terminalName>7019</terminalName><lastCommWithServer>1403603555944</lastCommWithServer><lat>43.650855</lat><long>-79.379492</long><installed>true</installed><locked>false</locked><installDate/><removalDate/><temporary>false</temporary><public>true</public><nbBikes>1</nbBikes><nbEmptyDocks>13</nbEmptyDocks><latestUpdateTime>1403572093672</latestUpdateTime></station><station><id>14</id><name>Simcoe St / Queen St W</name><terminalName>7022</terminalName><lastCommWithServer>1403603618698</lastCommWithServer><lat>43.650858</lat><long>-79.387582</long><installed>true</installed><locked>false</locked><installDate/><removalDate/><temporary>false</temporary><public>true</public><nbBikes>6</nbBikes><nbEmptyDocks>11</nbEmptyDocks><latestUpdateTime>1403588532882</latestUpdateTime></station><station><id>15</id><name>College St/ Borden St</name><terminalName>7023</terminalName><lastCommWithServer>1403603525385</lastCommWithServer><lat>43.6571</lat><long>-79.4056</long><installed>true</installed><locked>false</locked><installDate/><removalDate/><temporary>false</temporary><public>true</public><nbBikes>1</nbBikes><nbEmptyDocks>10</nbEmptyDocks><latestUpdateTime>1403585272230</latestUpdateTime></station><station><id>16</id><name>Huron St / Harbord St </name><terminalName>7024</terminalName><lastCommWithServer>1403603815176</lastCommWithServer><lat>43.663762</lat><long>-79.399782</long><installed>true</installed><locked>false</locked><installDate/><removalDate/><temporary>false</temporary><public>true</public><nbBikes>1</nbBikes><nbEmptyDocks>16</nbEmptyDocks><latestUpdateTime>1403578704278</latestUpdateTime></station><station><id>17</id><name>Ted Rogers Way / Bloor St E</name><terminalName>7025</terminalName><lastCommWithServer>1403603377355</lastCommWithServer><lat>43.671594</lat><long>-79.381074</long><installed>true</installed><locked>false</locked><installDate/><removalDate/><temporary>false</temporary><public>true</public><nbBikes>6</nbBikes><nbEmptyDocks>21</nbEmptyDocks><latestUpdateTime>1403571818434</latestUpdateTime></station><station><id>18</id><name>Phoebe St / Spadina Ave</name><terminalName>7020</terminalName><lastCommWithServer>1403603374979</lastCommWithServer><lat>43.650033</lat><long>-79.396555</long><installed>true</installed><locked>false</locked><installDate/><removalDate/><temporary>false</temporary><public>true</public><nbBikes>5</nbBikes><nbEmptyDocks>26</nbEmptyDocks><latestUpdateTime>1403586949278</latestUpdateTime></station><station><id>19</id><name>Beverly  St / Dundas St W</name><terminalName>7027</terminalName><lastCommWithServer>1403603493191</lastCommWithServer><lat>43.652823</lat><long>-79.393388</long><installed>true</installed><locked>false</locked><installDate/><removalDate/><temporary>false</temporary><public>true</public><nbBikes>15</nbBikes><nbEmptyDocks>11</nbEmptyDocks><latestUpdateTime>1403574508150</latestUpdateTime></station><station><id>20</id><name>Jarvis St / Isabella St</name><terminalName>7031</terminalName><lastCommWithServer>1403603380243</lastCommWithServer><lat>43.669192</lat><long>-79.379128</long><installed>true</installed><locked>false</locked><installDate/><removalDate/><temporary>false</temporary><public>true</public><nbBikes>6</nbBikes><nbEmptyDocks>16</nbEmptyDocks><latestUpdateTime>1403583095258</latestUpdateTime></station><station><id>21</id><name>Church St / Bloor St E</name><terminalName>7034</terminalName><lastCommWithServer>1403603663294</lastCommWithServer><lat>43.671389</lat><long>-79.382919</long><installed>true</installed><locked>false</locked><installDate/><removalDate/><temporary>false</temporary><public>true</public><nbBikes>0</nbBikes><nbEmptyDocks>15</nbEmptyDocks><latestUpdateTime>1403561920623</latestUpdateTime></station><station><id>22</id><name>Bathurst St/ Dundas St</name><terminalName>7037</terminalName><lastCommWithServer>1403603699237</lastCommWithServer><lat>43.6523</lat><long>-79.4058</long><installed>true</installed><locked>false</locked><installDate/><removalDate/><temporary>false</temporary><public>true</public><nbBikes>11</nbBikes><nbEmptyDocks>8</nbEmptyDocks><latestUpdateTime>1403594602369</latestUpdateTime></station><station><id>23</id><name>Yonge St / Dundas Sq</name><terminalName>7038</terminalName><lastCommWithServer>1403603389607</lastCommWithServer><lat>43.656053</lat><long>-79.380904</long><installed>true</installed><locked>false</locked><installDate/><removalDate/><temporary>false</temporary><public>true</public><nbBikes>1</nbBikes><nbEmptyDocks>14</nbEmptyDocks><latestUpdateTime>1403586955261</latestUpdateTime></station><station><id>24</id><name>Simcoe St / Dundas St W</name><terminalName>7039</terminalName><lastCommWithServer>1403603879031</lastCommWithServer><lat>43.653743</lat><long>-79.38882</long><installed>true</installed><locked>false</locked><installDate/><removalDate/><temporary>false</temporary><public>true</public><nbBikes>15</nbBikes><nbEmptyDocks>8</nbEmptyDocks><latestUpdateTime>1403585756525</latestUpdateTime></station><station><id>25</id><name>Edward St / Yonge St</name><terminalName>7041</terminalName><lastCommWithServer>1403603351417</lastCommWithServer><lat>43.65702</lat><long>-79.382249</long><installed>true</installed><locked>false</locked><installDate/><removalDate/><temporary>false</temporary><public>true</public><nbBikes>13</nbBikes><nbEmptyDocks>10</nbEmptyDocks><latestUpdateTime>1403601502139</latestUpdateTime></station><station><id>26</id><name>Sherbourne St/ Wellesley St</name><terminalName>7042</terminalName><lastCommWithServer>1403603522313</lastCommWithServer><lat>43.6673</lat><long>-79.374</long><installed>true</installed><locked>false</locked><installDate/><removalDate/><temporary>false</temporary><public>true</public><nbBikes>30</nbBikes><nbEmptyDocks>2</nbEmptyDocks><latestUpdateTime>1403603134346</latestUpdateTime></station><station><id>27</id><name>Lower Simcoe St / Lakeshore Blvd W</name><terminalName>7043</terminalName><lastCommWithServer>1403603931551</lastCommWithServer><lat>43.640016</lat><long>-79.383186</long><installed>true</installed><locked>false</locked><installDate/><removalDate/><temporary>false</temporary><public>true</public><nbBikes>12</nbBikes><nbEmptyDocks>1</nbEmptyDocks><latestUpdateTime>1403590530363</latestUpdateTime></station><station><id>28</id><name>Bond St / Queen St E</name><terminalName>7045</terminalName><lastCommWithServer>1403603614969</lastCommWithServer><lat>43.653236</lat><long>-79.376716</long><installed>true</installed><locked>false</locked><installDate/><removalDate/><temporary>false</temporary><public>true</public><nbBikes>3</nbBikes><nbEmptyDocks>8</nbEmptyDocks><latestUpdateTime>1403592556080</latestUpdateTime></station><station><id>29</id><name>Wellesley St E. / Yonge St</name><terminalName>7051</terminalName><lastCommWithServer>1403603241223</lastCommWithServer><lat>43.664953</lat><long>-79.384423</long><installed>true</installed><locked>false</locked><installDate/><removalDate/><temporary>false</temporary><public>true</public><nbBikes>16</nbBikes><nbEmptyDocks>0</nbEmptyDocks><latestUpdateTime>1403585525655</latestUpdateTime></station><station><id>30</id><name>Augusta Ave / Dundas St W</name><terminalName>7032</terminalName><lastCommWithServer>1403603584159</lastCommWithServer><lat>43.652175</lat><long>-79.400913</long><installed>true</installed><locked>false</locked><installDate/><removalDate/><temporary>false</temporary><public>true</public><nbBikes>4</nbBikes><nbEmptyDocks>11</nbEmptyDocks><latestUpdateTime>1403582245443</latestUpdateTime></station><station><id>31</id><name>Metro Hall Plaza</name><terminalName>7053</terminalName><lastCommWithServer>1403603612129</lastCommWithServer><lat>43.645859</lat><long>-79.38783</long><installed>true</installed><locked>false</locked><installDate/><removalDate/><temporary>false</temporary><public>true</public><nbBikes>13</nbBikes><nbEmptyDocks>2</nbEmptyDocks><latestUpdateTime>1403585231580</latestUpdateTime></station><station><id>32</id><name>Dundonald St./ Yonge St</name><terminalName>7054</terminalName><lastCommWithServer>1403603485117</lastCommWithServer><lat>43.665819</lat><long>-79.384755</long><installed>true</installed><locked>false</locked><installDate/><removalDate/><temporary>false</temporary><public>true</public><nbBikes>1</nbBikes><nbEmptyDocks>10</nbEmptyDocks><latestUpdateTime>1403595825654</latestUpdateTime></station><station><id>33</id><name>Simcoe St / Wellington St W</name><terminalName>7057</terminalName><lastCommWithServer>1403603480216</lastCommWithServer><lat>43.645533</lat><long>-79.3854</long><installed>true</installed><locked>false</locked><installDate/><removalDate/><temporary>false</temporary><public>true</public><nbBikes>8</nbBikes><nbEmptyDocks>10</nbEmptyDocks><latestUpdateTime>1403586586940</latestUpdateTime></station><station><id>34</id><name>Yonge St / Alexander St </name><terminalName>7058</terminalName><lastCommWithServer>1403603907919</lastCommWithServer><lat>43.662915</lat><long>-79.383316</long><installed>true</installed><locked>false</locked><installDate/><removalDate/><temporary>false</temporary><public>true</public><nbBikes>5</nbBikes><nbEmptyDocks>2</nbEmptyDocks><latestUpdateTime>1403585231832</latestUpdateTime></station><station><id>35</id><name>Bloor St / Brunswick Ave</name><terminalName>7061</terminalName><lastCommWithServer>1403603767817</lastCommWithServer><lat>43.665876</lat><long>-79.407224</long><installed>true</installed><locked>false</locked><installDate/><removalDate/><temporary>false</temporary><public>true</public><nbBikes>19</nbBikes><nbEmptyDocks>6</nbEmptyDocks><latestUpdateTime>1403591584746</latestUpdateTime></station><station><id>36</id><name>Queens Park / Bloor St W</name><terminalName>7063</terminalName><lastCommWithServer>1403603753809</lastCommWithServer><lat>43.668327</lat><long>-79.39355</long><installed>true</installed><locked>false</locked><installDate/><removalDate/><temporary>false</temporary><public>true</public><nbBikes>2</nbBikes><nbEmptyDocks>17</nbEmptyDocks><latestUpdateTime>1403582849213</latestUpdateTime></station><station><id>37</id><name>Dundas St/ Parliament St</name><terminalName>7065</terminalName><lastCommWithServer>1403603544745</lastCommWithServer><lat>43.659575</lat><long>-79.365769</long><installed>true</installed><locked>false</locked><installDate/><removalDate/><temporary>false</temporary><public>true</public><nbBikes>10</nbBikes><nbEmptyDocks>1</nbEmptyDocks><latestUpdateTime>1403585230715</latestUpdateTime></station><station><id>38</id><name>Willcocks St / St. George St</name><terminalName>7066</terminalName><lastCommWithServer>1403603488213</lastCommWithServer><lat>43.662237</lat><long>-79.397716</long><installed>true</installed><locked>false</locked><installDate/><removalDate/><temporary>false</temporary><public>true</public><nbBikes>3</nbBikes><nbEmptyDocks>14</nbEmptyDocks><latestUpdateTime>1403588708418</latestUpdateTime></station><station><id>39</id><name>Yonge St. / Lakeshore Ave. E.</name><terminalName>7067</terminalName><lastCommWithServer>1403603184459</lastCommWithServer><lat>43.643795</lat><long>-79.375413</long><installed>true</installed><locked>false</locked><installDate/><removalDate/><temporary>false</temporary><public>true</public><nbBikes>24</nbBikes><nbEmptyDocks>13</nbEmptyDocks><latestUpdateTime>1403587002661</latestUpdateTime></station><station><id>40</id><name>Dockside Dr / Queens Quay E.</name><terminalName>7068</terminalName><lastCommWithServer>1403603250839</lastCommWithServer><lat>43.644272</lat><long>-79.367766</long><installed>true</installed><locked>false</locked><installDate/><removalDate/><temporary>false</temporary><public>true</public><nbBikes>7</nbBikes><nbEmptyDocks>19</nbEmptyDocks><latestUpdateTime>1403567124829</latestUpdateTime></station><station><id>41</id><name>Queen St W / Spadina Ave</name><terminalName>7069</terminalName><lastCommWithServer>1403603312020</lastCommWithServer><lat>43.649147</lat><long>-79.395504</long><installed>true</installed><locked>false</locked><installDate/><removalDate/><temporary>false</temporary><public>true</public><nbBikes>6</nbBikes><nbEmptyDocks>4</nbEmptyDocks><latestUpdateTime>1403583758649</latestUpdateTime></station><station><id>42</id><name>25 York St</name><terminalName>7070</terminalName><lastCommWithServer>1403603316188</lastCommWithServer><lat>43.643566</lat><long>-79.380298</long><installed>true</installed><locked>false</locked><installDate/><removalDate/><temporary>false</temporary><public>true</public><nbBikes>5</nbBikes><nbEmptyDocks>3</nbEmptyDocks><latestUpdateTime>1403581332920</latestUpdateTime></station><station><id>43</id><name>Queen St W/ Shaw St</name><terminalName>7072</terminalName><lastCommWithServer>1403603802620</lastCommWithServer><lat>43.644524</lat><long>-79.416519</long><installed>true</installed><locked>false</locked><installDate/><removalDate/><temporary>false</temporary><public>true</public><nbBikes>12</nbBikes><nbEmptyDocks>3</nbEmptyDocks><latestUpdateTime>1403596759270</latestUpdateTime></station><station><id>44</id><name>Spadina Ave/ Sussex Ave</name><terminalName>7074</terminalName><lastCommWithServer>1403603257124</lastCommWithServer><lat>43.664137</lat><long>-79.402496</long><installed>true</installed><locked>false</locked><installDate/><removalDate/><temporary>false</temporary><public>true</public><nbBikes>19</nbBikes><nbEmptyDocks>8</nbEmptyDocks><latestUpdateTime>1403585230038</latestUpdateTime></station><station><id>45</id><name>Queens Quay W / Dan Leckie Way</name><terminalName>7075</terminalName><lastCommWithServer>1403603146380</lastCommWithServer><lat>43.636533</lat><long>-79.395854</long><installed>true</installed><locked>false</locked><installDate/><removalDate/><temporary>false</temporary><public>true</public><nbBikes>14</nbBikes><nbEmptyDocks>12</nbEmptyDocks><latestUpdateTime>1403567486589</latestUpdateTime></station><station><id>46</id><name>York St / Queens Quay W</name><terminalName>7076</terminalName><lastCommWithServer>1403603848580</lastCommWithServer><lat>43.640132</lat><long>-79.380464</long><installed>true</installed><locked>false</locked><installDate/><removalDate/><temporary>false</temporary><public>true</public><nbBikes>13</nbBikes><nbEmptyDocks>12</nbEmptyDocks><latestUpdateTime>1403587825850</latestUpdateTime></station><station><id>47</id><name>Granby St / Yonge St</name><terminalName>7077</terminalName><lastCommWithServer>1403603665413</lastCommWithServer><lat>43.660576</lat><long>-79.382389</long><installed>true</installed><locked>false</locked><installDate/><removalDate/><temporary>false</temporary><public>true</public><nbBikes>16</nbBikes><nbEmptyDocks>3</nbEmptyDocks><latestUpdateTime>1403585230981</latestUpdateTime></station><station><id>48</id><name>Gerrard St E / Church St</name><terminalName>7079</terminalName><lastCommWithServer>1403603798430</lastCommWithServer><lat>43.659778</lat><long>-79.37978</long><installed>true</installed><locked>false</locked><installDate/><removalDate/><temporary>false</temporary><public>true</public><nbBikes>12</nbBikes><nbEmptyDocks>0</nbEmptyDocks><latestUpdateTime>1403569305136</latestUpdateTime></station><station><id>49</id><name>Widmer St / King St W</name><terminalName>7017</terminalName><lastCommWithServer>1403603583912</lastCommWithServer><lat>43.647313</lat><long>-79.391549</long><installed>true</installed><locked>false</locked><installDate/><removalDate/><temporary>false</temporary><public>true</public><nbBikes>9</nbBikes><nbEmptyDocks>10</nbEmptyDocks><latestUpdateTime>1403596432788</latestUpdateTime></station><station><id>50</id><name>Bremner Blvd / Rees St</name><terminalName>7018</terminalName><lastCommWithServer>1403603778557</lastCommWithServer><lat>43.641529</lat><long>-79.386741</long><installed>true</installed><locked>false</locked><installDate/><removalDate/><temporary>false</temporary><public>true</public><nbBikes>8</nbBikes><nbEmptyDocks>7</nbEmptyDocks><latestUpdateTime>1403597246747</latestUpdateTime></station><station><id>51</id><name>Ft. York/Capreol Crt.</name><terminalName>7000</terminalName><lastCommWithServer>1403603826078</lastCommWithServer><lat>43.639832</lat><long>-79.395954</long><installed>true</installed><locked>false</locked><installDate/><removalDate/><temporary>false</temporary><public>true</public><nbBikes>31</nbBikes><nbEmptyDocks>0</nbEmptyDocks><latestUpdateTime>1403595802646</latestUpdateTime></station><station><id>52</id><name>Lower Jarvis St / The Esplanade</name><terminalName>7001</terminalName><lastCommWithServer>1403603386117</lastCommWithServer><lat>43.647992</lat><long>-79.370907</long><installed>true</installed><locked>false</locked><installDate/><removalDate/><temporary>false</temporary><public>true</public><nbBikes>13</nbBikes><nbEmptyDocks>1</nbEmptyDocks><latestUpdateTime>1403585230991</latestUpdateTime></station><station><id>53</id><name>University Ave / Elm St</name><terminalName>7004</terminalName><lastCommWithServer>1403603632317</lastCommWithServer><lat>43.656518</lat><long>-79.389099</long><installed>true</installed><locked>false</locked><installDate/><removalDate/><temporary>false</temporary><public>true</public><nbBikes>0</nbBikes><nbEmptyDocks>9</nbEmptyDocks><latestUpdateTime>1403578228636</latestUpdateTime></station><station><id>54</id><name>University Ave / King St W</name><terminalName>7005</terminalName><lastCommWithServer>1403603753607</lastCommWithServer><lat>43.648093</lat><long>-79.384749</long><installed>true</installed><locked>false</locked><installDate/><removalDate/><temporary>false</temporary><public>true</public><nbBikes>0</nbBikes><nbEmptyDocks>17</nbEmptyDocks><latestUpdateTime>1403582667522</latestUpdateTime></station><station><id>55</id><name>Wellington St / Portland St</name><terminalName>7011</terminalName><lastCommWithServer>1403603343949</lastCommWithServer><lat>43.642982</lat><long>-79.399256</long><installed>true</installed><locked>false</locked><installDate/><removalDate/><temporary>false</temporary><public>true</public><nbBikes>9</nbBikes><nbEmptyDocks>2</nbEmptyDocks><latestUpdateTime>1403585230424</latestUpdateTime></station><station><id>56</id><name>Sherbourne / Carlton (Allan Gardens)</name><terminalName>7014</terminalName><lastCommWithServer>1403603466232</lastCommWithServer><lat>43.663102</lat><long>-79.373181</long><installed>true</installed><locked>false</locked><installDate/><removalDate/><temporary>false</temporary><public>true</public><nbBikes>13</nbBikes><nbEmptyDocks>1</nbEmptyDocks><latestUpdateTime>1403585925107</latestUpdateTime></station><station><id>57</id><name>King St W / Bay St</name><terminalName>7015</terminalName><lastCommWithServer>1403603512867</lastCommWithServer><lat>43.64852</lat><long>-79.380576</long><installed>true</installed><locked>false</locked><installDate/><removalDate/><temporary>false</temporary><public>true</public><nbBikes>8</nbBikes><nbEmptyDocks>7</nbEmptyDocks><latestUpdateTime>1403576341157</latestUpdateTime></station><station><id>58</id><name>Queen St/ Ossington Ave</name><terminalName>7035</terminalName><lastCommWithServer>1403603507036</lastCommWithServer><lat>43.643975</lat><long>-79.419576</long><installed>true</installed><locked>false</locked><installDate/><removalDate/><temporary>false</temporary><public>true</public><nbBikes>18</nbBikes><nbEmptyDocks>5</nbEmptyDocks><latestUpdateTime>1403585230127</latestUpdateTime></station><station><id>59</id><name>Melinda St / Yonge St</name><terminalName>7036</terminalName><lastCommWithServer>1403603184933</lastCommWithServer><lat>43.648629</lat><long>-79.377748</long><installed>true</installed><locked>false</locked><installDate/><removalDate/><temporary>false</temporary><public>true</public><nbBikes>5</nbBikes><nbEmptyDocks>6</nbEmptyDocks><latestUpdateTime>1403585230816</latestUpdateTime></station><station><id>60</id><name>Euclid Ave/ Bloor St</name><terminalName>7040</terminalName><lastCommWithServer>1403603221917</lastCommWithServer><lat>43.6643</lat><long>-79.415</long><installed>true</installed><locked>false</locked><installDate/><removalDate/><temporary>false</temporary><public>true</public><nbBikes>11</nbBikes><nbEmptyDocks>6</nbEmptyDocks><latestUpdateTime>1403590611452</latestUpdateTime></station><station><id>61</id><name>Bay St / Albert St</name><terminalName>7021</terminalName><lastCommWithServer>1403603153868</lastCommWithServer><lat>43.653264</lat><long>-79.382458</long><installed>true</installed><locked>false</locked><installDate/><removalDate/><temporary>false</temporary><public>true</public><nbBikes>1</nbBikes><nbEmptyDocks>22</nbEmptyDocks><latestUpdateTime>1403585229347</latestUpdateTime></station><station><id>62</id><name>Niagara St./Queen W. (Richmond)</name><terminalName>7046</terminalName><lastCommWithServer>1403603660650</lastCommWithServer><lat>43.64534</lat><long>-79.409597</long><installed>true</installed><locked>false</locked><installDate/><removalDate/><temporary>false</temporary><public>true</public><nbBikes>11</nbBikes><nbEmptyDocks>2</nbEmptyDocks><latestUpdateTime>1403596950907</latestUpdateTime></station><station><id>63</id><name>University Ave / Gerrard St W</name><terminalName>7047</terminalName><lastCommWithServer>1403603848195</lastCommWithServer><lat>43.657763</lat><long>-79.389165</long><installed>true</installed><locked>false</locked><installDate/><removalDate/><temporary>false</temporary><public>true</public><nbBikes>3</nbBikes><nbEmptyDocks>8</nbEmptyDocks><latestUpdateTime>1403585229607</latestUpdateTime></station><station><id>64</id><name>Front/Yonge (Hockey Hall of Fame)</name><terminalName>7048</terminalName><lastCommWithServer>1403603386166</lastCommWithServer><lat>43.646144</lat><long>-79.377962</long><installed>true</installed><locked>false</locked><installDate/><removalDate/><temporary>false</temporary><public>true</public><nbBikes>21</nbBikes><nbEmptyDocks>18</nbEmptyDocks><latestUpdateTime>1403578370393</latestUpdateTime></station><station><id>65</id><name>Queen St / Portland St</name><terminalName>7049</terminalName><lastCommWithServer>1403603258615</lastCommWithServer><lat>43.6476</lat><long>-79.4015</long><installed>true</installed><locked>false</locked><installDate/><removalDate/><temporary>false</temporary><public>true</public><nbBikes>8</nbBikes><nbEmptyDocks>3</nbEmptyDocks><latestUpdateTime>1403583530329</latestUpdateTime></station><station><id>66</id><name>Richmond St E / Jarvis St</name><terminalName>7050</terminalName><lastCommWithServer>1403603256396</lastCommWithServer><lat>43.652634</lat><long>-79.374222</long><installed>true</installed><locked>false</locked><installDate/><removalDate/><temporary>false</temporary><public>true</public><nbBikes>11</nbBikes><nbEmptyDocks>0</nbEmptyDocks><latestUpdateTime>1403578755595</latestUpdateTime></station><station><id>67</id><name>Front St W / Blue Jays Way</name><terminalName>7059</terminalName><lastCommWithServer>1403603421655</lastCommWithServer><lat>43.643473</lat><long>-79.390477</long><installed>true</installed><locked>false</locked><installDate/><removalDate/><temporary>false</temporary><public>true</public><nbBikes>10</nbBikes><nbEmptyDocks>5</nbEmptyDocks><latestUpdateTime>1403557647528</latestUpdateTime></station><station><id>68</id><name>Princess Ave / King St</name><terminalName>7060</terminalName><lastCommWithServer>1403603628903</lastCommWithServer><lat>43.652123</lat><long>-79.367139</long><installed>true</installed><locked>false</locked><installDate/><removalDate/><temporary>false</temporary><public>true</public><nbBikes>10</nbBikes><nbEmptyDocks>7</nbEmptyDocks><latestUpdateTime>1403586812140</latestUpdateTime></station><station><id>69</id><name>University Ave / College St</name><terminalName>7062</terminalName><lastCommWithServer>1403603681082</lastCommWithServer><lat>43.659226</lat><long>-79.390213</long><installed>true</installed><locked>false</locked><installDate/><removalDate/><temporary>false</temporary><public>true</public><nbBikes>2</nbBikes><nbEmptyDocks>8</nbEmptyDocks><latestUpdateTime>1403585229770</latestUpdateTime></station><station><id>70</id><name>Trinity/ Front (Distillery)</name><terminalName>7064</terminalName><lastCommWithServer>1403603817477</lastCommWithServer><lat>43.6513</lat><long>-79.3603</long><installed>true</installed><locked>false</locked><installDate/><removalDate/><temporary>false</temporary><public>true</public><nbBikes>13</nbBikes><nbEmptyDocks>5</nbEmptyDocks><latestUpdateTime>1403585229770</latestUpdateTime></station><station><id>71</id><name>Bathurst/ Queens Quay (Island Airport)</name><terminalName>7071</terminalName><lastCommWithServer>1403603514935</lastCommWithServer><lat>43.6354</lat><long>-79.3984</long><installed>true</installed><locked>false</locked><installDate/><removalDate/><temporary>false</temporary><public>true</public><nbBikes>18</nbBikes><nbEmptyDocks>5</nbEmptyDocks><latestUpdateTime>1403589836019</latestUpdateTime></station><station><id>72</id><name>Bremner/Spadina</name><terminalName>7073</terminalName><lastCommWithServer>1403603768146</lastCommWithServer><lat>43.640903</lat><long>-79.392895</long><installed>true</installed><locked>false</locked><installDate/><removalDate/><temporary>false</temporary><public>true</public><nbBikes>14</nbBikes><nbEmptyDocks>1</nbEmptyDocks><latestUpdateTime>1403593619766</latestUpdateTime></station><station><id>73</id><name>Bay St / College St</name><terminalName>7006</terminalName><lastCommWithServer>1403603198305</lastCommWithServer><lat>43.660422</lat><long>-79.385441</long><installed>true</installed><locked>false</locked><installDate/><removalDate/><temporary>false</temporary><public>true</public><nbBikes>10</nbBikes><nbEmptyDocks>1</nbEmptyDocks><latestUpdateTime>1403588995697</latestUpdateTime></station><station><id>74</id><name>Bay St / Bloor St W</name><terminalName>7029</terminalName><lastCommWithServer>1403603737422</lastCommWithServer><lat>43.669429</lat><long>-79.389326</long><installed>true</installed><locked>false</locked><installDate/><removalDate/><temporary>false</temporary><public>true</public><nbBikes>3</nbBikes><nbEmptyDocks>10</nbEmptyDocks><latestUpdateTime>1403585229290</latestUpdateTime></station><station><id>75</id><name>Wellington St W / Bay St</name><terminalName>7052</terminalName><lastCommWithServer>1403603614102</lastCommWithServer><lat>43.647331</lat><long>-79.379673</long><installed>true</installed><locked>false</locked><installDate/><removalDate/><temporary>false</temporary><public>true</public><nbBikes>6</nbBikes><nbEmptyDocks>20</nbEmptyDocks><latestUpdateTime>1403595082193</latestUpdateTime></station><station><id>76</id><name>King St E / Jarvis St</name><terminalName>7009</terminalName><lastCommWithServer>1403603369899</lastCommWithServer><lat>43.650325</lat><long>-79.372287</long><installed>true</installed><locked>false</locked><installDate/><removalDate/><temporary>false</temporary><public>true</public><nbBikes>5</nbBikes><nbEmptyDocks>4</nbEmptyDocks><latestUpdateTime>1403588669015</latestUpdateTime></station><station><id>77</id><name>College St / Huron St</name><terminalName>7007</terminalName><lastCommWithServer>1403603790019</lastCommWithServer><lat>43.658148</lat><long>-79.398167</long><installed>true</installed><locked>false</locked><installDate/><removalDate/><temporary>false</temporary><public>true</public><nbBikes>1</nbBikes><nbEmptyDocks>10</nbEmptyDocks><latestUpdateTime>1403576100224</latestUpdateTime></station><station><id>78</id><name>College St / Major St</name><terminalName>7078</terminalName><lastCommWithServer>1403603501738</lastCommWithServer><lat>43.6576</lat><long>-79.4032</long><installed>true</installed><locked>false</locked><installDate/><removalDate/><temporary>false</temporary><public>true</public><nbBikes>5</nbBikes><nbEmptyDocks>5</nbEmptyDocks><latestUpdateTime>1403585229278</latestUpdateTime></station><station><id>79</id><name>Bay St / St Joseph St</name><terminalName>7026</terminalName><lastCommWithServer>1403603485523</lastCommWithServer><lat>43.665615</lat><long>-79.38758</long><installed>true</installed><locked>false</locked><installDate/><removalDate/><temporary>false</temporary><public>true</public><nbBikes>14</nbBikes><nbEmptyDocks>5</nbEmptyDocks><latestUpdateTime>1403588450771</latestUpdateTime></station><station><id>80</id><name>Bay St / Wellesley St W</name><terminalName>7030</terminalName><lastCommWithServer>1403603431498</lastCommWithServer><lat>43.664088</lat><long>-79.387095</long><installed>true</installed><locked>false</locked><installDate/><removalDate/><temporary>false</temporary><public>true</public><nbBikes>23</nbBikes><nbEmptyDocks>11</nbEmptyDocks><latestUpdateTime>1403584714928</latestUpdateTime></station><station><id>82</id><name>Parliament St/ Gerrard St</name><terminalName>7056</terminalName><lastCommWithServer>1403603237647</lastCommWithServer><lat>43.661149</lat><long>-79.366648</long><installed>true</installed><locked>false</locked><installDate/><removalDate/><temporary>false</temporary><public>true</public><nbBikes>26</nbBikes><nbEmptyDocks>0</nbEmptyDocks><latestUpdateTime>1403585229795</latestUpdateTime></station><station><id>83</id><name>Wellesley St W / Queens Park Cres W</name><terminalName>7008</terminalName><lastCommWithServer>1403603790287</lastCommWithServer><lat>43.66333</lat><long>-79.392891</long><installed>true</installed><locked>false</locked><installDate/><removalDate/><temporary>false</temporary><public>true</public><nbBikes>1</nbBikes><nbEmptyDocks>17</nbEmptyDocks><latestUpdateTime>1403576474513</latestUpdateTime></station></stations>