<?xml version='1.0' encoding='UTF-8'?><stations lastUpdate="1400597941944" version="2.0"><station><id>1</id><name>Jarvis St/ Carleton St</name><terminalName>7055</terminalName><lastCommWithServer>1400597101646</lastCommWithServer><lat>43.66207</lat><long>-79.37617</long><installed>true</installed><locked>false</locked><installDate/><removalDate/><temporary>false</temporary><public>true</public><nbBikes>4</nbBikes><nbEmptyDocks>10</nbEmptyDocks><latestUpdateTime>1400592977900</latestUpdateTime></station><station><id>5</id><name>Church St/ Alexander St</name><terminalName>7044</terminalName><lastCommWithServer>1400597737122</lastCommWithServer><lat>43.6636</lat><long>-79.3806</long><installed>true</installed><locked>false</locked><installDate/><removalDate/><temporary>false</temporary><public>true</public><nbBikes>3</nbBikes><nbEmptyDocks>12</nbEmptyDocks><latestUpdateTime>1400590907038</latestUpdateTime></station><station><id>6</id><name>Gould St/ Mutual St</name><terminalName>7028</terminalName><lastCommWithServer>1400597912454</lastCommWithServer><lat>43.6582</lat><long>-79.3768</long><installed>true</installed><locked>false</locked><installDate/><removalDate/><temporary>false</temporary><public>true</public><nbBikes>26</nbBikes><nbEmptyDocks>4</nbEmptyDocks><latestUpdateTime>1400597066375</latestUpdateTime></station><station><id>7</id><name>St George St / Bloor St W</name><terminalName>7002</terminalName><lastCommWithServer>1400597682880</lastCommWithServer><lat>43.667333</lat><long>-79.399429</long><installed>true</installed><locked>false</locked><installDate/><removalDate/><temporary>false</temporary><public>true</public><nbBikes>10</nbBikes><nbEmptyDocks>5</nbEmptyDocks><latestUpdateTime>1400595495537</latestUpdateTime></station><station><id>8</id><name>Madison Ave / Bloor St W</name><terminalName>7003</terminalName><lastCommWithServer>1400597171949</lastCommWithServer><lat>43.667158</lat><long>-79.402761</long><installed>true</installed><locked>false</locked><installDate/><removalDate/><temporary>false</temporary><public>true</public><nbBikes>2</nbBikes><nbEmptyDocks>13</nbEmptyDocks><latestUpdateTime>1400597170289</latestUpdateTime></station><station><id>9</id><name>King St W / Spadina Ave</name><terminalName>7010</terminalName><lastCommWithServer>1400597878551</lastCommWithServer><lat>43.645323</lat><long>-79.395003</long><installed>true</installed><locked>false</locked><installDate/><removalDate/><temporary>false</temporary><public>true</public><nbBikes>8</nbBikes><nbEmptyDocks>10</nbEmptyDocks><latestUpdateTime>1400597876116</latestUpdateTime></station><station><id>10</id><name>Elizabeth St / Edward St</name><terminalName>7012</terminalName><lastCommWithServer>1400597151520</lastCommWithServer><lat>43.656152</lat><long>-79.385225</long><installed>true</installed><locked>false</locked><installDate/><removalDate/><temporary>false</temporary><public>true</public><nbBikes>14</nbBikes><nbEmptyDocks>1</nbEmptyDocks><latestUpdateTime>1400596242797</latestUpdateTime></station><station><id>11</id><name>Scott St / The Esplanade</name><terminalName>7013</terminalName><lastCommWithServer>1400597584872</lastCommWithServer><lat>43.64656</lat><long>-79.375274</long><installed>true</installed><locked>false</locked><installDate/><removalDate/><temporary>false</temporary><public>true</public><nbBikes>5</nbBikes><nbEmptyDocks>14</nbEmptyDocks><latestUpdateTime>1400593938041</latestUpdateTime></station><station><id>12</id><name>Ferry Ramp / Queens Quay W</name><terminalName>7016</terminalName><lastCommWithServer>1400597869449</lastCommWithServer><lat>43.640823</lat><long>-79.376265</long><installed>true</installed><locked>false</locked><installDate/><removalDate/><temporary>false</temporary><public>true</public><nbBikes>4</nbBikes><nbEmptyDocks>18</nbEmptyDocks><latestUpdateTime>1400596859779</latestUpdateTime></station><station><id>13</id><name>Temperance St / Yonge St</name><terminalName>7019</terminalName><lastCommWithServer>1400597530424</lastCommWithServer><lat>43.650855</lat><long>-79.379492</long><installed>true</installed><locked>false</locked><installDate/><removalDate/><temporary>false</temporary><public>true</public><nbBikes>13</nbBikes><nbEmptyDocks>1</nbEmptyDocks><latestUpdateTime>1400594141722</latestUpdateTime></station><station><id>14</id><name>Simcoe St / Queen St W</name><terminalName>7022</terminalName><lastCommWithServer>1400597931846</lastCommWithServer><lat>43.650858</lat><long>-79.387582</long><installed>true</installed><locked>false</locked><installDate/><removalDate/><temporary>false</temporary><public>true</public><nbBikes>18</nbBikes><nbEmptyDocks>0</nbEmptyDocks><latestUpdateTime>1400595396997</latestUpdateTime></station><station><id>15</id><name>College St/ Borden St</name><terminalName>7023</terminalName><lastCommWithServer>1400597564131</lastCommWithServer><lat>43.6571</lat><long>-79.4056</long><installed>true</installed><locked>false</locked><installDate/><removalDate/><temporary>false</temporary><public>true</public><nbBikes>0</nbBikes><nbEmptyDocks>11</nbEmptyDocks><latestUpdateTime>1400591741014</latestUpdateTime></station><station><id>16</id><name>Huron St / Harbord St </name><terminalName>7024</terminalName><lastCommWithServer>1400597432354</lastCommWithServer><lat>43.663762</lat><long>-79.399782</long><installed>true</installed><locked>false</locked><installDate/><removalDate/><temporary>false</temporary><public>true</public><nbBikes>8</nbBikes><nbEmptyDocks>11</nbEmptyDocks><latestUpdateTime>1400596585341</latestUpdateTime></station><station><id>17</id><name>Ted Rogers Way / Bloor St E</name><terminalName>7025</terminalName><lastCommWithServer>1400597883199</lastCommWithServer><lat>43.671594</lat><long>-79.381074</long><installed>true</installed><locked>false</locked><installDate/><removalDate/><temporary>false</temporary><public>true</public><nbBikes>5</nbBikes><nbEmptyDocks>22</nbEmptyDocks><latestUpdateTime>1400594426937</latestUpdateTime></station><station><id>18</id><name>Phoebe St / Spadina Ave</name><terminalName>7020</terminalName><lastCommWithServer>1400597700921</lastCommWithServer><lat>43.650033</lat><long>-79.396555</long><installed>true</installed><locked>false</locked><installDate/><removalDate/><temporary>false</temporary><public>true</public><nbBikes>17</nbBikes><nbEmptyDocks>15</nbEmptyDocks><latestUpdateTime>1400597699513</latestUpdateTime></station><station><id>19</id><name>Beverly  St / Dundas St W</name><terminalName>7027</terminalName><lastCommWithServer>1400597885381</lastCommWithServer><lat>43.652823</lat><long>-79.393388</long><installed>true</installed><locked>false</locked><installDate/><removalDate/><temporary>false</temporary><public>true</public><nbBikes>7</nbBikes><nbEmptyDocks>20</nbEmptyDocks><latestUpdateTime>1400596550903</latestUpdateTime></station><station><id>20</id><name>Jarvis St / Isabella St</name><terminalName>7031</terminalName><lastCommWithServer>1400597840920</lastCommWithServer><lat>43.669192</lat><long>-79.379128</long><installed>true</installed><locked>false</locked><installDate/><removalDate/><temporary>false</temporary><public>true</public><nbBikes>2</nbBikes><nbEmptyDocks>20</nbEmptyDocks><latestUpdateTime>1400597127201</latestUpdateTime></station><station><id>21</id><name>Church St / Bloor St E</name><terminalName>7034</terminalName><lastCommWithServer>1400597798909</lastCommWithServer><lat>43.671389</lat><long>-79.382919</long><installed>true</installed><locked>false</locked><installDate/><removalDate/><temporary>false</temporary><public>true</public><nbBikes>12</nbBikes><nbEmptyDocks>3</nbEmptyDocks><latestUpdateTime>1400591189378</latestUpdateTime></station><station><id>22</id><name>Bathurst St/ Dundas St</name><terminalName>7037</terminalName><lastCommWithServer>1400597809712</lastCommWithServer><lat>43.6523</lat><long>-79.4058</long><installed>true</installed><locked>false</locked><installDate/><removalDate/><temporary>false</temporary><public>true</public><nbBikes>2</nbBikes><nbEmptyDocks>17</nbEmptyDocks><latestUpdateTime>1400589660115</latestUpdateTime></station><station><id>23</id><name>Yonge St / Dundas Sq</name><terminalName>7038</terminalName><lastCommWithServer>1400597531415</lastCommWithServer><lat>43.656053</lat><long>-79.380904</long><installed>true</installed><locked>false</locked><installDate/><removalDate/><temporary>false</temporary><public>true</public><nbBikes>13</nbBikes><nbEmptyDocks>2</nbEmptyDocks><latestUpdateTime>1400595978709</latestUpdateTime></station><station><id>24</id><name>Simcoe St / Dundas St W</name><terminalName>7039</terminalName><lastCommWithServer>1400597703424</lastCommWithServer><lat>43.653743</lat><long>-79.38882</long><installed>true</installed><locked>false</locked><installDate/><removalDate/><temporary>false</temporary><public>true</public><nbBikes>19</nbBikes><nbEmptyDocks>7</nbEmptyDocks><latestUpdateTime>1400592788727</latestUpdateTime></station><station><id>25</id><name>Edward St / Yonge St</name><terminalName>7041</terminalName><lastCommWithServer>1400597288072</lastCommWithServer><lat>43.65702</lat><long>-79.382249</long><installed>true</installed><locked>false</locked><installDate/><removalDate/><temporary>false</temporary><public>true</public><nbBikes>14</nbBikes><nbEmptyDocks>8</nbEmptyDocks><latestUpdateTime>1400596333527</latestUpdateTime></station><station><id>26</id><name>Sherbourne St/ Wellesley St</name><terminalName>7042</terminalName><lastCommWithServer>1400597793034</lastCommWithServer><lat>43.6673</lat><long>-79.374</long><installed>true</installed><locked>false</locked><installDate/><removalDate/><temporary>false</temporary><public>true</public><nbBikes>15</nbBikes><nbEmptyDocks>18</nbEmptyDocks><latestUpdateTime>1400597791378</latestUpdateTime></station><station><id>27</id><name>Lower Simcoe St / Lakeshore Blvd W</name><terminalName>7043</terminalName><lastCommWithServer>1400597461933</lastCommWithServer><lat>43.640016</lat><long>-79.383186</long><installed>true</installed><locked>false</locked><installDate/><removalDate/><temporary>false</temporary><public>true</public><nbBikes>5</nbBikes><nbEmptyDocks>13</nbEmptyDocks><latestUpdateTime>1400597258703</latestUpdateTime></station><station><id>28</id><name>Bond St / Queen St E</name><terminalName>7045</terminalName><lastCommWithServer>1400597134182</lastCommWithServer><lat>43.653236</lat><long>-79.376716</long><installed>true</installed><locked>false</locked><installDate/><removalDate/><temporary>false</temporary><public>true</public><nbBikes>7</nbBikes><nbEmptyDocks>4</nbEmptyDocks><latestUpdateTime>1400597132555</latestUpdateTime></station><station><id>29</id><name>Wellesley St E. / Yonge St</name><terminalName>7051</terminalName><lastCommWithServer>1400597735933</lastCommWithServer><lat>43.664953</lat><long>-79.384423</long><installed>true</installed><locked>false</locked><installDate/><removalDate/><temporary>false</temporary><public>true</public><nbBikes>1</nbBikes><nbEmptyDocks>15</nbEmptyDocks><latestUpdateTime>1400594235607</latestUpdateTime></station><station><id>30</id><name>Augusta Ave / Dundas St W</name><terminalName>7032</terminalName><lastCommWithServer>1400597480043</lastCommWithServer><lat>43.652175</lat><long>-79.400913</long><installed>true</installed><locked>false</locked><installDate/><removalDate/><temporary>false</temporary><public>true</public><nbBikes>9</nbBikes><nbEmptyDocks>6</nbEmptyDocks><latestUpdateTime>1400590041416</latestUpdateTime></station><station><id>31</id><name>Metro Hall Plaza / Wellington St W</name><terminalName>7053</terminalName><lastCommWithServer>1400597890418</lastCommWithServer><lat>43.645916</lat><long>-79.388225</long><installed>true</installed><locked>false</locked><installDate/><removalDate/><temporary>false</temporary><public>true</public><nbBikes>11</nbBikes><nbEmptyDocks>3</nbEmptyDocks><latestUpdateTime>1400597888397</latestUpdateTime></station><station><id>32</id><name>Dundonald St./ Yonge St</name><terminalName>7054</terminalName><lastCommWithServer>1400597654120</lastCommWithServer><lat>43.665819</lat><long>-79.384755</long><installed>true</installed><locked>false</locked><installDate/><removalDate/><temporary>false</temporary><public>true</public><nbBikes>5</nbBikes><nbEmptyDocks>6</nbEmptyDocks><latestUpdateTime>1400596808452</latestUpdateTime></station><station><id>33</id><name>Simcoe St / Wellington St W</name><terminalName>7057</terminalName><lastCommWithServer>1400597276287</lastCommWithServer><lat>43.645533</lat><long>-79.3854</long><installed>true</installed><locked>false</locked><installDate/><removalDate/><temporary>false</temporary><public>true</public><nbBikes>18</nbBikes><nbEmptyDocks>5</nbEmptyDocks><latestUpdateTime>1400597275138</latestUpdateTime></station><station><id>34</id><name>Yonge St / Grosvenor St</name><terminalName>7058</terminalName><lastCommWithServer>1400597566110</lastCommWithServer><lat>43.662915</lat><long>-79.383316</long><installed>true</installed><locked>false</locked><installDate/><removalDate/><temporary>false</temporary><public>true</public><nbBikes>0</nbBikes><nbEmptyDocks>5</nbEmptyDocks><latestUpdateTime>1400597564438</latestUpdateTime></station><station><id>35</id><name>Bloor St / Brunswick Ave</name><terminalName>7061</terminalName><lastCommWithServer>1400597463897</lastCommWithServer><lat>43.665876</lat><long>-79.407224</long><installed>true</installed><locked>false</locked><installDate/><removalDate/><temporary>false</temporary><public>true</public><nbBikes>0</nbBikes><nbEmptyDocks>25</nbEmptyDocks><latestUpdateTime>1400592042055</latestUpdateTime></station><station><id>36</id><name>Queens Park / Bloor St W</name><terminalName>7063</terminalName><lastCommWithServer>1400597436029</lastCommWithServer><lat>43.668327</lat><long>-79.39355</long><installed>true</installed><locked>false</locked><installDate/><removalDate/><temporary>false</temporary><public>true</public><nbBikes>9</nbBikes><nbEmptyDocks>10</nbEmptyDocks><latestUpdateTime>1400592685901</latestUpdateTime></station><station><id>37</id><name>Dundas St/ Parliament St</name><terminalName>7065</terminalName><lastCommWithServer>1400597453985</lastCommWithServer><lat>43.659575</lat><long>-79.365769</long><installed>true</installed><locked>false</locked><installDate/><removalDate/><temporary>false</temporary><public>true</public><nbBikes>0</nbBikes><nbEmptyDocks>11</nbEmptyDocks><latestUpdateTime>1400594740623</latestUpdateTime></station><station><id>38</id><name>Willcocks St / St. George St</name><terminalName>7066</terminalName><lastCommWithServer>1400597294701</lastCommWithServer><lat>43.662237</lat><long>-79.397716</long><installed>true</installed><locked>false</locked><installDate/><removalDate/><temporary>false</temporary><public>true</public><nbBikes>14</nbBikes><nbEmptyDocks>2</nbEmptyDocks><latestUpdateTime>1400592784922</latestUpdateTime></station><station><id>39</id><name>Yonge St / Harbour St</name><terminalName>7067</terminalName><lastCommWithServer>1400597708261</lastCommWithServer><lat>43.643795</lat><long>-79.375413</long><installed>true</installed><locked>false</locked><installDate/><removalDate/><temporary>false</temporary><public>true</public><nbBikes>23</nbBikes><nbEmptyDocks>15</nbEmptyDocks><latestUpdateTime>1400596861420</latestUpdateTime></station><station><id>40</id><name>Dockside Dr / Queens Quay W</name><terminalName>7068</terminalName><lastCommWithServer>1400597813230</lastCommWithServer><lat>43.644264</lat><long>-79.36737</long><installed>true</installed><locked>false</locked><installDate/><removalDate/><temporary>false</temporary><public>true</public><nbBikes>22</nbBikes><nbEmptyDocks>2</nbEmptyDocks><latestUpdateTime>1400591060516</latestUpdateTime></station><station><id>41</id><name>Queen St W / Spadina Ave</name><terminalName>7069</terminalName><lastCommWithServer>1400597820311</lastCommWithServer><lat>43.649147</lat><long>-79.395504</long><installed>true</installed><locked>false</locked><installDate/><removalDate/><temporary>false</temporary><public>true</public><nbBikes>6</nbBikes><nbEmptyDocks>5</nbEmptyDocks><latestUpdateTime>1400596309989</latestUpdateTime></station><station><id>42</id><name>25 York St</name><terminalName>7070</terminalName><lastCommWithServer>1400597709360</lastCommWithServer><lat>43.643566</lat><long>-79.380298</long><installed>true</installed><locked>false</locked><installDate/><removalDate/><temporary>false</temporary><public>true</public><nbBikes>8</nbBikes><nbEmptyDocks>3</nbEmptyDocks><latestUpdateTime>1400596018281</latestUpdateTime></station><station><id>43</id><name>Queen St W/ Shaw St</name><terminalName>7072</terminalName><lastCommWithServer>1400597364434</lastCommWithServer><lat>43.644524</lat><long>-79.416519</long><installed>true</installed><locked>false</locked><installDate/><removalDate/><temporary>false</temporary><public>true</public><nbBikes>7</nbBikes><nbEmptyDocks>6</nbEmptyDocks><latestUpdateTime>1400594829178</latestUpdateTime></station><station><id>44</id><name>Spadina Ave/ Sussex Ave</name><terminalName>7074</terminalName><lastCommWithServer>1400597310871</lastCommWithServer><lat>43.664137</lat><long>-79.402496</long><installed>true</installed><locked>false</locked><installDate/><removalDate/><temporary>false</temporary><public>true</public><nbBikes>1</nbBikes><nbEmptyDocks>24</nbEmptyDocks><latestUpdateTime>1400597309979</latestUpdateTime></station><station><id>45</id><name>Queens Quay W / Dan Leckie Way</name><terminalName>7075</terminalName><lastCommWithServer>1400597737428</lastCommWithServer><lat>43.636533</lat><long>-79.395854</long><installed>true</installed><locked>false</locked><installDate/><removalDate/><temporary>false</temporary><public>true</public><nbBikes>13</nbBikes><nbEmptyDocks>14</nbEmptyDocks><latestUpdateTime>1400590376424</latestUpdateTime></station><station><id>46</id><name>York St / Queens Quay W</name><terminalName>7076</terminalName><lastCommWithServer>1400597408009</lastCommWithServer><lat>43.640132</lat><long>-79.380464</long><installed>true</installed><locked>false</locked><installDate/><removalDate/><temporary>false</temporary><public>true</public><nbBikes>12</nbBikes><nbEmptyDocks>14</nbEmptyDocks><latestUpdateTime>1400591978541</latestUpdateTime></station><station><id>47</id><name>Granby St / Yonge St</name><terminalName>7077</terminalName><lastCommWithServer>1400597798286</lastCommWithServer><lat>43.660576</lat><long>-79.382389</long><installed>true</installed><locked>false</locked><installDate/><removalDate/><temporary>false</temporary><public>true</public><nbBikes>11</nbBikes><nbEmptyDocks>8</nbEmptyDocks><latestUpdateTime>1400597796812</latestUpdateTime></station><station><id>48</id><name>Gerrard St E / Church St</name><terminalName>7079</terminalName><lastCommWithServer>1400597279091</lastCommWithServer><lat>43.659778</lat><long>-79.37978</long><installed>true</installed><locked>false</locked><installDate/><removalDate/><temporary>false</temporary><public>true</public><nbBikes>13</nbBikes><nbEmptyDocks>1</nbEmptyDocks><latestUpdateTime>1400597179989</latestUpdateTime></station><station><id>49</id><name>Widmer St / King St W</name><terminalName>7017</terminalName><lastCommWithServer>1400597124093</lastCommWithServer><lat>43.647313</lat><long>-79.391549</long><installed>true</installed><locked>false</locked><installDate/><removalDate/><temporary>false</temporary><public>true</public><nbBikes>19</nbBikes><nbEmptyDocks>0</nbEmptyDocks><latestUpdateTime>1400591994293</latestUpdateTime></station><station><id>50</id><name>Bremner Blvd / Rees St</name><terminalName>7018</terminalName><lastCommWithServer>1400597451372</lastCommWithServer><lat>43.641529</lat><long>-79.386741</long><installed>true</installed><locked>false</locked><installDate/><removalDate/><temporary>false</temporary><public>true</public><nbBikes>0</nbBikes><nbEmptyDocks>14</nbEmptyDocks><latestUpdateTime>1400593905074</latestUpdateTime></station><station><id>51</id><name>Fort York Blvd. and Capreol Crt</name><terminalName>7000</terminalName><lastCommWithServer>1400597199738</lastCommWithServer><lat>43.64021</lat><long>-79.394225</long><installed>true</installed><locked>false</locked><installDate/><removalDate/><temporary>false</temporary><public>true</public><nbBikes>5</nbBikes><nbEmptyDocks>26</nbEmptyDocks><latestUpdateTime>1400597198456</latestUpdateTime></station><station><id>52</id><name>Lower Jarvis St / The Esplanade</name><terminalName>7001</terminalName><lastCommWithServer>1400597517197</lastCommWithServer><lat>43.647992</lat><long>-79.370907</long><installed>true</installed><locked>false</locked><installDate/><removalDate/><temporary>false</temporary><public>true</public><nbBikes>10</nbBikes><nbEmptyDocks>5</nbEmptyDocks><latestUpdateTime>1400597305603</latestUpdateTime></station><station><id>53</id><name>University Ave / Elm St</name><terminalName>7004</terminalName><lastCommWithServer>1400597253878</lastCommWithServer><lat>43.656518</lat><long>-79.389099</long><installed>true</installed><locked>false</locked><installDate/><removalDate/><temporary>false</temporary><public>true</public><nbBikes>9</nbBikes><nbEmptyDocks>2</nbEmptyDocks><latestUpdateTime>1400594672809</latestUpdateTime></station><station><id>54</id><name>University Ave / King St W</name><terminalName>7005</terminalName><lastCommWithServer>1400597837607</lastCommWithServer><lat>43.648093</lat><long>-79.384749</long><installed>true</installed><locked>false</locked><installDate/><removalDate/><temporary>false</temporary><public>true</public><nbBikes>14</nbBikes><nbEmptyDocks>5</nbEmptyDocks><latestUpdateTime>1400597836301</latestUpdateTime></station><station><id>55</id><name>Wellington St / Portland St</name><terminalName>7011</terminalName><lastCommWithServer>1400597322662</lastCommWithServer><lat>43.642982</lat><long>-79.399256</long><installed>true</installed><locked>false</locked><installDate/><removalDate/><temporary>false</temporary><public>true</public><nbBikes>0</nbBikes><nbEmptyDocks>8</nbEmptyDocks><latestUpdateTime>1400593913291</latestUpdateTime></station><station><id>56</id><name>Sherbourne / Carlton (Allan Gardens)</name><terminalName>7014</terminalName><lastCommWithServer>1400597205404</lastCommWithServer><lat>43.663102</lat><long>-79.373181</long><installed>true</installed><locked>false</locked><installDate/><removalDate/><temporary>false</temporary><public>true</public><nbBikes>2</nbBikes><nbEmptyDocks>15</nbEmptyDocks><latestUpdateTime>1400596358736</latestUpdateTime></station><station><id>57</id><name>King St W / Bay St</name><terminalName>7015</terminalName><lastCommWithServer>1400597278376</lastCommWithServer><lat>43.64852</lat><long>-79.380576</long><installed>true</installed><locked>false</locked><installDate/><removalDate/><temporary>false</temporary><public>true</public><nbBikes>15</nbBikes><nbEmptyDocks>0</nbEmptyDocks><latestUpdateTime>1400594818193</latestUpdateTime></station><station><id>58</id><name>Queen St/ Ossington Ave</name><terminalName>7035</terminalName><lastCommWithServer>1400597680646</lastCommWithServer><lat>43.643975</lat><long>-79.419576</long><installed>true</installed><locked>false</locked><installDate/><removalDate/><temporary>false</temporary><public>true</public><nbBikes>21</nbBikes><nbEmptyDocks>1</nbEmptyDocks><latestUpdateTime>1400595989877</latestUpdateTime></station><station><id>59</id><name>Melinda St / Yonge St</name><terminalName>7036</terminalName><lastCommWithServer>1400597334035</lastCommWithServer><lat>43.648629</lat><long>-79.377748</long><installed>true</installed><locked>false</locked><installDate/><removalDate/><temporary>false</temporary><public>true</public><nbBikes>8</nbBikes><nbEmptyDocks>3</nbEmptyDocks><latestUpdateTime>1400595805403</latestUpdateTime></station><station><id>60</id><name>Euclid Ave/ Bloor St</name><terminalName>7040</terminalName><lastCommWithServer>1400597805320</lastCommWithServer><lat>43.6643</lat><long>-79.415</long><installed>true</installed><locked>false</locked><installDate/><removalDate/><temporary>false</temporary><public>true</public><nbBikes>0</nbBikes><nbEmptyDocks>19</nbEmptyDocks><latestUpdateTime>1400596959108</latestUpdateTime></station><station><id>61</id><name>Bay St / Albert St</name><terminalName>7021</terminalName><lastCommWithServer>1400597789670</lastCommWithServer><lat>43.653264</lat><long>-79.382458</long><installed>true</installed><locked>false</locked><installDate/><removalDate/><temporary>false</temporary><public>true</public><nbBikes>19</nbBikes><nbEmptyDocks>0</nbEmptyDocks><latestUpdateTime>1400596285368</latestUpdateTime></station><station><id>62</id><name>Niagara St/ Queen St W</name><terminalName>7046</terminalName><lastCommWithServer>1400597454313</lastCommWithServer><lat>43.645548</lat><long>-79.409695</long><installed>true</installed><locked>false</locked><installDate/><removalDate/><temporary>false</temporary><public>true</public><nbBikes>11</nbBikes><nbEmptyDocks>3</nbEmptyDocks><latestUpdateTime>1400596187185</latestUpdateTime></station><station><id>63</id><name>University Ave / Gerrard St W</name><terminalName>7047</terminalName><lastCommWithServer>1400597661577</lastCommWithServer><lat>43.657763</lat><long>-79.389165</long><installed>true</installed><locked>false</locked><installDate/><removalDate/><temporary>false</temporary><public>true</public><nbBikes>8</nbBikes><nbEmptyDocks>2</nbEmptyDocks><latestUpdateTime>1400594616124</latestUpdateTime></station><station><id>64</id><name>Front St W / Bay St</name><terminalName>7048</terminalName><lastCommWithServer>1400597905732</lastCommWithServer><lat>43.646453</lat><long>-79.377037</long><installed>true</installed><locked>false</locked><installDate/><removalDate/><temporary>false</temporary><public>true</public><nbBikes>8</nbBikes><nbEmptyDocks>29</nbEmptyDocks><latestUpdateTime>1400597089034</latestUpdateTime></station><station><id>65</id><name>Queen St / Portland St</name><terminalName>7049</terminalName><lastCommWithServer>1400597894204</lastCommWithServer><lat>43.6476</lat><long>-79.4015</long><installed>true</installed><locked>false</locked><installDate/><removalDate/><temporary>false</temporary><public>true</public><nbBikes>5</nbBikes><nbEmptyDocks>5</nbEmptyDocks><latestUpdateTime>1400597047957</latestUpdateTime></station><station><id>66</id><name>Richmond St E / Jarvis St</name><terminalName>7050</terminalName><lastCommWithServer>1400597689204</lastCommWithServer><lat>43.652634</lat><long>-79.374222</long><installed>true</installed><locked>false</locked><installDate/><removalDate/><temporary>false</temporary><public>true</public><nbBikes>7</nbBikes><nbEmptyDocks>3</nbEmptyDocks><latestUpdateTime>1400597687849</latestUpdateTime></station><station><id>67</id><name>Front St W / Blue Jays Way</name><terminalName>7059</terminalName><lastCommWithServer>1400597635019</lastCommWithServer><lat>43.643473</lat><long>-79.390477</long><installed>true</installed><locked>false</locked><installDate/><removalDate/><temporary>false</temporary><public>true</public><nbBikes>0</nbBikes><nbEmptyDocks>14</nbEmptyDocks><latestUpdateTime>1400592668553</latestUpdateTime></station><station><id>68</id><name>University Ave/ Queen Str</name><terminalName>7060</terminalName><lastCommWithServer>1400597533498</lastCommWithServer><lat>43.651408</lat><long>-79.386524</long><installed>true</installed><locked>false</locked><installDate/><removalDate/><temporary>false</temporary><public>true</public><nbBikes>11</nbBikes><nbEmptyDocks>4</nbEmptyDocks><latestUpdateTime>1400595620635</latestUpdateTime></station><station><id>69</id><name>University Ave / College St</name><terminalName>7062</terminalName><lastCommWithServer>1400597212436</lastCommWithServer><lat>43.659226</lat><long>-79.390213</long><installed>true</installed><locked>false</locked><installDate/><removalDate/><temporary>false</temporary><public>true</public><nbBikes>8</nbBikes><nbEmptyDocks>2</nbEmptyDocks><latestUpdateTime>1400597190340</latestUpdateTime></station><station><id>70</id><name>Trinity/ Front (Distillery)</name><terminalName>7064</terminalName><lastCommWithServer>1400597523312</lastCommWithServer><lat>43.6513</lat><long>-79.3603</long><installed>true</installed><locked>false</locked><installDate/><removalDate/><temporary>false</temporary><public>true</public><nbBikes>5</nbBikes><nbEmptyDocks>14</nbEmptyDocks><latestUpdateTime>1400594126331</latestUpdateTime></station><station><id>71</id><name>Bathurst/ Queens Quay (Island Airport)</name><terminalName>7071</terminalName><lastCommWithServer>1400597412853</lastCommWithServer><lat>43.6354</lat><long>-79.3984</long><installed>true</installed><locked>false</locked><installDate/><removalDate/><temporary>false</temporary><public>true</public><nbBikes>7</nbBikes><nbEmptyDocks>16</nbEmptyDocks><latestUpdateTime>1400593463539</latestUpdateTime></station><station><id>72</id><name>Spadina Ave/ Bremner Blvd</name><terminalName>7073</terminalName><lastCommWithServer>1400597653615</lastCommWithServer><lat>43.640867</lat><long>-79.392916</long><installed>true</installed><locked>false</locked><installDate/><removalDate/><temporary>false</temporary><public>true</public><nbBikes>0</nbBikes><nbEmptyDocks>15</nbEmptyDocks><latestUpdateTime>1400597652220</latestUpdateTime></station><station><id>73</id><name>Bay St / College St</name><terminalName>7006</terminalName><lastCommWithServer>1400597621901</lastCommWithServer><lat>43.660422</lat><long>-79.385441</long><installed>true</installed><locked>false</locked><installDate/><removalDate/><temporary>false</temporary><public>true</public><nbBikes>6</nbBikes><nbEmptyDocks>3</nbEmptyDocks><latestUpdateTime>1400597382741</latestUpdateTime></station><station><id>74</id><name>Bay St / Bloor St W</name><terminalName>7029</terminalName><lastCommWithServer>1400597628577</lastCommWithServer><lat>43.669429</lat><long>-79.389326</long><installed>true</installed><locked>false</locked><installDate/><removalDate/><temporary>false</temporary><public>true</public><nbBikes>5</nbBikes><nbEmptyDocks>9</nbEmptyDocks><latestUpdateTime>1400596782719</latestUpdateTime></station><station><id>75</id><name>Wellington St W / Bay St</name><terminalName>7052</terminalName><lastCommWithServer>1400597717881</lastCommWithServer><lat>43.647331</lat><long>-79.379673</long><installed>true</installed><locked>false</locked><installDate/><removalDate/><temporary>false</temporary><public>true</public><nbBikes>25</nbBikes><nbEmptyDocks>1</nbEmptyDocks><latestUpdateTime>1400597716784</latestUpdateTime></station><station><id>76</id><name>King St E / Jarvis St</name><terminalName>7009</terminalName><lastCommWithServer>1400597808687</lastCommWithServer><lat>43.650325</lat><long>-79.372287</long><installed>true</installed><locked>false</locked><installDate/><removalDate/><temporary>false</temporary><public>true</public><nbBikes>5</nbBikes><nbEmptyDocks>6</nbEmptyDocks><latestUpdateTime>1400597806586</latestUpdateTime></station><station><id>77</id><name>College St / Huron St</name><terminalName>7007</terminalName><lastCommWithServer>1400597839288</lastCommWithServer><lat>43.658148</lat><long>-79.398167</long><installed>true</installed><locked>false</locked><installDate/><removalDate/><temporary>false</temporary><public>true</public><nbBikes>7</nbBikes><nbEmptyDocks>2</nbEmptyDocks><latestUpdateTime>1400594169073</latestUpdateTime></station><station><id>78</id><name>College St / Major St</name><terminalName>7078</terminalName><lastCommWithServer>1400597859371</lastCommWithServer><lat>43.6576</lat><long>-79.4032</long><installed>true</installed><locked>false</locked><installDate/><removalDate/><temporary>false</temporary><public>true</public><nbBikes>4</nbBikes><nbEmptyDocks>7</nbEmptyDocks><latestUpdateTime>1400597572353</latestUpdateTime></station><station><id>79</id><name>Bay St / St Joseph St</name><terminalName>7026</terminalName><lastCommWithServer>1400597637462</lastCommWithServer><lat>43.665615</lat><long>-79.38758</long><installed>true</installed><locked>false</locked><installDate/><removalDate/><temporary>false</temporary><public>true</public><nbBikes>3</nbBikes><nbEmptyDocks>16</nbEmptyDocks><latestUpdateTime>1400597635357</latestUpdateTime></station><station><id>80</id><name>Bay St / Wellesley St W</name><terminalName>7030</terminalName><lastCommWithServer>1400597673671</lastCommWithServer><lat>43.664088</lat><long>-79.387095</long><installed>true</installed><locked>false</locked><installDate/><removalDate/><temporary>false</temporary><public>true</public><nbBikes>12</nbBikes><nbEmptyDocks>23</nbEmptyDocks><latestUpdateTime>1400595983394</latestUpdateTime></station><station><id>82</id><name>Parliament St/ Gerrard St</name><terminalName>7056</terminalName><lastCommWithServer>1400597417578</lastCommWithServer><lat>43.661149</lat><long>-79.366648</long><installed>true</installed><locked>false</locked><installDate/><removalDate/><temporary>false</temporary><public>true</public><nbBikes>4</nbBikes><nbEmptyDocks>23</nbEmptyDocks><latestUpdateTime>1400595726881</latestUpdateTime></station><station><id>83</id><name>Wellesley St W / Queens Park Cres W</name><terminalName>7008</terminalName><lastCommWithServer>1400597151896</lastCommWithServer><lat>43.66333</lat><long>-79.392891</long><installed>true</installed><locked>false</locked><installDate/><removalDate/><temporary>false</temporary><public>true</public><nbBikes>13</nbBikes><nbEmptyDocks>5</nbEmptyDocks><latestUpdateTime>1400592401948</latestUpdateTime></station></stations>