<?xml version='1.0' encoding='UTF-8'?><stations lastUpdate="1401483582688" version="2.0"><station><id>1</id><name>Jarvis St/ Carleton St</name><terminalName>7055</terminalName><lastCommWithServer>1401482738282</lastCommWithServer><lat>43.66207</lat><long>-79.37617</long><installed>true</installed><locked>false</locked><installDate/><removalDate/><temporary>false</temporary><public>true</public><nbBikes>7</nbBikes><nbEmptyDocks>7</nbEmptyDocks><latestUpdateTime>1401482736999</latestUpdateTime></station><station><id>5</id><name>Church St/ Alexander St</name><terminalName>7044</terminalName><lastCommWithServer>1401483145329</lastCommWithServer><lat>43.6636</lat><long>-79.3806</long><installed>true</installed><locked>false</locked><installDate/><removalDate/><temporary>false</temporary><public>true</public><nbBikes>4</nbBikes><nbEmptyDocks>11</nbEmptyDocks><latestUpdateTime>1401483143205</latestUpdateTime></station><station><id>6</id><name>Gould St/ Mutual St</name><terminalName>7028</terminalName><lastCommWithServer>1401483211592</lastCommWithServer><lat>43.6582</lat><long>-79.3768</long><installed>true</installed><locked>false</locked><installDate/><removalDate/><temporary>false</temporary><public>true</public><nbBikes>11</nbBikes><nbEmptyDocks>20</nbEmptyDocks><latestUpdateTime>1401483210129</latestUpdateTime></station><station><id>7</id><name>St George St / Bloor St W</name><terminalName>7002</terminalName><lastCommWithServer>1401483246146</lastCommWithServer><lat>43.667333</lat><long>-79.399429</long><installed>true</installed><locked>false</locked><installDate/><removalDate/><temporary>false</temporary><public>true</public><nbBikes>8</nbBikes><nbEmptyDocks>7</nbEmptyDocks><latestUpdateTime>1401483245080</latestUpdateTime></station><station><id>8</id><name>Madison Ave / Bloor St W</name><terminalName>7003</terminalName><lastCommWithServer>1401483477035</lastCommWithServer><lat>43.667158</lat><long>-79.402761</long><installed>true</installed><locked>false</locked><installDate/><removalDate/><temporary>false</temporary><public>true</public><nbBikes>3</nbBikes><nbEmptyDocks>12</nbEmptyDocks><latestUpdateTime>1401483475589</latestUpdateTime></station><station><id>9</id><name>King St W / Spadina Ave</name><terminalName>7010</terminalName><lastCommWithServer>1401483578667</lastCommWithServer><lat>43.645323</lat><long>-79.395003</long><installed>true</installed><locked>false</locked><installDate/><removalDate/><temporary>false</temporary><public>true</public><nbBikes>11</nbBikes><nbEmptyDocks>8</nbEmptyDocks><latestUpdateTime>1401483576407</latestUpdateTime></station><station><id>10</id><name>Elizabeth St / Edward St</name><terminalName>7012</terminalName><lastCommWithServer>1401483230924</lastCommWithServer><lat>43.656152</lat><long>-79.385225</long><installed>true</installed><locked>false</locked><installDate/><removalDate/><temporary>false</temporary><public>true</public><nbBikes>2</nbBikes><nbEmptyDocks>12</nbEmptyDocks><latestUpdateTime>1401483229232</latestUpdateTime></station><station><id>11</id><name>Scott St / The Esplanade</name><terminalName>7013</terminalName><lastCommWithServer>1401483472393</lastCommWithServer><lat>43.64656</lat><long>-79.375274</long><installed>true</installed><locked>false</locked><installDate/><removalDate/><temporary>false</temporary><public>true</public><nbBikes>8</nbBikes><nbEmptyDocks>11</nbEmptyDocks><latestUpdateTime>1401482626558</latestUpdateTime></station><station><id>12</id><name>Ferry Ramp / Queens Quay W</name><terminalName>7016</terminalName><lastCommWithServer>1401483266002</lastCommWithServer><lat>43.640823</lat><long>-79.376265</long><installed>true</installed><locked>false</locked><installDate/><removalDate/><temporary>false</temporary><public>true</public><nbBikes>3</nbBikes><nbEmptyDocks>18</nbEmptyDocks><latestUpdateTime>1401483263786</latestUpdateTime></station><station><id>13</id><name>Temperance St / Yonge St</name><terminalName>7019</terminalName><lastCommWithServer>1401483494881</lastCommWithServer><lat>43.650855</lat><long>-79.379492</long><installed>true</installed><locked>false</locked><installDate/><removalDate/><temporary>false</temporary><public>true</public><nbBikes>6</nbBikes><nbEmptyDocks>8</nbEmptyDocks><latestUpdateTime>1401483492949</latestUpdateTime></station><station><id>14</id><name>Simcoe St / Queen St W</name><terminalName>7022</terminalName><lastCommWithServer>1401483248748</lastCommWithServer><lat>43.650858</lat><long>-79.387582</long><installed>true</installed><locked>false</locked><installDate/><removalDate/><temporary>false</temporary><public>true</public><nbBikes>11</nbBikes><nbEmptyDocks>8</nbEmptyDocks><latestUpdateTime>1401483246832</latestUpdateTime></station><station><id>15</id><name>College St/ Borden St</name><terminalName>7023</terminalName><lastCommWithServer>1401483433098</lastCommWithServer><lat>43.6571</lat><long>-79.4056</long><installed>true</installed><locked>false</locked><installDate/><removalDate/><temporary>false</temporary><public>true</public><nbBikes>6</nbBikes><nbEmptyDocks>5</nbEmptyDocks><latestUpdateTime>1401482785006</latestUpdateTime></station><station><id>16</id><name>Huron St / Harbord St </name><terminalName>7024</terminalName><lastCommWithServer>1401483402327</lastCommWithServer><lat>43.663762</lat><long>-79.399782</long><installed>true</installed><locked>false</locked><installDate/><removalDate/><temporary>false</temporary><public>true</public><nbBikes>3</nbBikes><nbEmptyDocks>14</nbEmptyDocks><latestUpdateTime>1401483401168</latestUpdateTime></station><station><id>17</id><name>Ted Rogers Way / Bloor St E</name><terminalName>7025</terminalName><lastCommWithServer>1401483408724</lastCommWithServer><lat>43.671594</lat><long>-79.381074</long><installed>true</installed><locked>false</locked><installDate/><removalDate/><temporary>false</temporary><public>true</public><nbBikes>10</nbBikes><nbEmptyDocks>17</nbEmptyDocks><latestUpdateTime>1401483407267</latestUpdateTime></station><station><id>18</id><name>Phoebe St / Spadina Ave</name><terminalName>7020</terminalName><lastCommWithServer>1401483482596</lastCommWithServer><lat>43.650033</lat><long>-79.396555</long><installed>true</installed><locked>false</locked><installDate/><removalDate/><temporary>false</temporary><public>true</public><nbBikes>25</nbBikes><nbEmptyDocks>7</nbEmptyDocks><latestUpdateTime>1401483480942</latestUpdateTime></station><station><id>19</id><name>Beverly  St / Dundas St W</name><terminalName>7027</terminalName><lastCommWithServer>1401483537285</lastCommWithServer><lat>43.652823</lat><long>-79.393388</long><installed>true</installed><locked>false</locked><installDate/><removalDate/><temporary>false</temporary><public>true</public><nbBikes>13</nbBikes><nbEmptyDocks>12</nbEmptyDocks><latestUpdateTime>1401483535813</latestUpdateTime></station><station><id>20</id><name>Jarvis St / Isabella St</name><terminalName>7031</terminalName><lastCommWithServer>1401483578708</lastCommWithServer><lat>43.669192</lat><long>-79.379128</long><installed>true</installed><locked>false</locked><installDate/><removalDate/><temporary>false</temporary><public>true</public><nbBikes>7</nbBikes><nbEmptyDocks>15</nbEmptyDocks><latestUpdateTime>1401481887745</latestUpdateTime></station><station><id>21</id><name>Church St / Bloor St E</name><terminalName>7034</terminalName><lastCommWithServer>1401483251967</lastCommWithServer><lat>43.671389</lat><long>-79.382919</long><installed>true</installed><locked>false</locked><installDate/><removalDate/><temporary>false</temporary><public>true</public><nbBikes>0</nbBikes><nbEmptyDocks>15</nbEmptyDocks><latestUpdateTime>1401483249802</latestUpdateTime></station><station><id>22</id><name>Bathurst St/ Dundas St</name><terminalName>7037</terminalName><lastCommWithServer>1401483523548</lastCommWithServer><lat>43.6523</lat><long>-79.4058</long><installed>true</installed><locked>false</locked><installDate/><removalDate/><temporary>false</temporary><public>true</public><nbBikes>0</nbBikes><nbEmptyDocks>18</nbEmptyDocks><latestUpdateTime>1401480583072</latestUpdateTime></station><station><id>23</id><name>Yonge St / Dundas Sq</name><terminalName>7038</terminalName><lastCommWithServer>1401483376492</lastCommWithServer><lat>43.656053</lat><long>-79.380904</long><installed>true</installed><locked>false</locked><installDate/><removalDate/><temporary>false</temporary><public>true</public><nbBikes>11</nbBikes><nbEmptyDocks>4</nbEmptyDocks><latestUpdateTime>1401483375239</latestUpdateTime></station><station><id>24</id><name>Simcoe St / Dundas St W</name><terminalName>7039</terminalName><lastCommWithServer>1401482847001</lastCommWithServer><lat>43.653743</lat><long>-79.38882</long><installed>true</installed><locked>false</locked><installDate/><removalDate/><temporary>false</temporary><public>true</public><nbBikes>13</nbBikes><nbEmptyDocks>12</nbEmptyDocks><latestUpdateTime>1401482001177</latestUpdateTime></station><station><id>25</id><name>Edward St / Yonge St</name><terminalName>7041</terminalName><lastCommWithServer>1401482797914</lastCommWithServer><lat>43.65702</lat><long>-79.382249</long><installed>true</installed><locked>false</locked><installDate/><removalDate/><temporary>false</temporary><public>true</public><nbBikes>16</nbBikes><nbEmptyDocks>7</nbEmptyDocks><latestUpdateTime>1401482796799</latestUpdateTime></station><station><id>26</id><name>Sherbourne St/ Wellesley St</name><terminalName>7042</terminalName><lastCommWithServer>1401483431487</lastCommWithServer><lat>43.6673</lat><long>-79.374</long><installed>true</installed><locked>false</locked><installDate/><removalDate/><temporary>false</temporary><public>true</public><nbBikes>9</nbBikes><nbEmptyDocks>24</nbEmptyDocks><latestUpdateTime>1401483430434</latestUpdateTime></station><station><id>27</id><name>Lower Simcoe St / Lakeshore Blvd W</name><terminalName>7043</terminalName><lastCommWithServer>1401483105634</lastCommWithServer><lat>43.640016</lat><long>-79.383186</long><installed>true</installed><locked>false</locked><installDate/><removalDate/><temporary>false</temporary><public>true</public><nbBikes>16</nbBikes><nbEmptyDocks>0</nbEmptyDocks><latestUpdateTime>1401482258575</latestUpdateTime></station><station><id>28</id><name>Bond St / Queen St E</name><terminalName>7045</terminalName><lastCommWithServer>1401483345043</lastCommWithServer><lat>43.653236</lat><long>-79.376716</long><installed>true</installed><locked>false</locked><installDate/><removalDate/><temporary>false</temporary><public>true</public><nbBikes>5</nbBikes><nbEmptyDocks>5</nbEmptyDocks><latestUpdateTime>1401483344188</latestUpdateTime></station><station><id>29</id><name>Wellesley St E. / Yonge St</name><terminalName>7051</terminalName><lastCommWithServer>1401483571567</lastCommWithServer><lat>43.664953</lat><long>-79.384423</long><installed>true</installed><locked>false</locked><installDate/><removalDate/><temporary>false</temporary><public>true</public><nbBikes>4</nbBikes><nbEmptyDocks>11</nbEmptyDocks><latestUpdateTime>1401481880517</latestUpdateTime></station><station><id>30</id><name>Augusta Ave / Dundas St W</name><terminalName>7032</terminalName><lastCommWithServer>1401482889907</lastCommWithServer><lat>43.652175</lat><long>-79.400913</long><installed>true</installed><locked>false</locked><installDate/><removalDate/><temporary>false</temporary><public>true</public><nbBikes>11</nbBikes><nbEmptyDocks>2</nbEmptyDocks><latestUpdateTime>1401482888014</latestUpdateTime></station><station><id>31</id><name>Metro Hall Plaza</name><terminalName>7053</terminalName><lastCommWithServer>1401482741149</lastCommWithServer><lat>43.645859</lat><long>-79.38783</long><installed>true</installed><locked>false</locked><installDate/><removalDate/><temporary>false</temporary><public>true</public><nbBikes>5</nbBikes><nbEmptyDocks>8</nbEmptyDocks><latestUpdateTime>1401482739711</latestUpdateTime></station><station><id>32</id><name>Dundonald St./ Yonge St</name><terminalName>7054</terminalName><lastCommWithServer>1401483358627</lastCommWithServer><lat>43.665819</lat><long>-79.384755</long><installed>true</installed><locked>false</locked><installDate/><removalDate/><temporary>false</temporary><public>true</public><nbBikes>5</nbBikes><nbEmptyDocks>6</nbEmptyDocks><latestUpdateTime>1401483356858</latestUpdateTime></station><station><id>33</id><name>Simcoe St / Wellington St W</name><terminalName>7057</terminalName><lastCommWithServer>1401483373734</lastCommWithServer><lat>43.645533</lat><long>-79.3854</long><installed>true</installed><locked>false</locked><installDate/><removalDate/><temporary>false</temporary><public>true</public><nbBikes>17</nbBikes><nbEmptyDocks>6</nbEmptyDocks><latestUpdateTime>1401483372361</latestUpdateTime></station><station><id>34</id><name>Yonge St / Alexander St </name><terminalName>7058</terminalName><lastCommWithServer>1401483209260</lastCommWithServer><lat>43.662915</lat><long>-79.383316</long><installed>true</installed><locked>false</locked><installDate/><removalDate/><temporary>false</temporary><public>true</public><nbBikes>4</nbBikes><nbEmptyDocks>3</nbEmptyDocks><latestUpdateTime>1401477690687</latestUpdateTime></station><station><id>35</id><name>Bloor St / Brunswick Ave</name><terminalName>7061</terminalName><lastCommWithServer>1401483570595</lastCommWithServer><lat>43.665876</lat><long>-79.407224</long><installed>true</installed><locked>false</locked><installDate/><removalDate/><temporary>false</temporary><public>true</public><nbBikes>11</nbBikes><nbEmptyDocks>12</nbEmptyDocks><latestUpdateTime>1401482724665</latestUpdateTime></station><station><id>36</id><name>Queens Park / Bloor St W</name><terminalName>7063</terminalName><lastCommWithServer>1401483524583</lastCommWithServer><lat>43.668327</lat><long>-79.39355</long><installed>true</installed><locked>false</locked><installDate/><removalDate/><temporary>false</temporary><public>true</public><nbBikes>9</nbBikes><nbEmptyDocks>10</nbEmptyDocks><latestUpdateTime>1401483523625</latestUpdateTime></station><station><id>38</id><name>Willcocks St / St. George St</name><terminalName>7066</terminalName><lastCommWithServer>1401483212297</lastCommWithServer><lat>43.662237</lat><long>-79.397716</long><installed>true</installed><locked>false</locked><installDate/><removalDate/><temporary>false</temporary><public>true</public><nbBikes>9</nbBikes><nbEmptyDocks>7</nbEmptyDocks><latestUpdateTime>1401480677004</latestUpdateTime></station><station><id>39</id><name>Yonge St / Harbour St</name><terminalName>7067</terminalName><lastCommWithServer>1401483326883</lastCommWithServer><lat>43.643795</lat><long>-79.375413</long><installed>true</installed><locked>false</locked><installDate/><removalDate/><temporary>false</temporary><public>true</public><nbBikes>13</nbBikes><nbEmptyDocks>26</nbEmptyDocks><latestUpdateTime>1401479195635</latestUpdateTime></station><station><id>40</id><name>Dockside Dr / Queens Quay E.</name><terminalName>7068</terminalName><lastCommWithServer>1401483566224</lastCommWithServer><lat>43.644272</lat><long>-79.367766</long><installed>true</installed><locked>false</locked><installDate/><removalDate/><temporary>false</temporary><public>true</public><nbBikes>16</nbBikes><nbEmptyDocks>11</nbEmptyDocks><latestUpdateTime>1401482719625</latestUpdateTime></station><station><id>41</id><name>Queen St W / Spadina Ave</name><terminalName>7069</terminalName><lastCommWithServer>1401483307493</lastCommWithServer><lat>43.649147</lat><long>-79.395504</long><installed>true</installed><locked>false</locked><installDate/><removalDate/><temporary>false</temporary><public>true</public><nbBikes>5</nbBikes><nbEmptyDocks>5</nbEmptyDocks><latestUpdateTime>1401483305689</latestUpdateTime></station><station><id>42</id><name>25 York St</name><terminalName>7070</terminalName><lastCommWithServer>1401483518241</lastCommWithServer><lat>43.643566</lat><long>-79.380298</long><installed>true</installed><locked>false</locked><installDate/><removalDate/><temporary>false</temporary><public>true</public><nbBikes>2</nbBikes><nbEmptyDocks>8</nbEmptyDocks><latestUpdateTime>1401483517078</latestUpdateTime></station><station><id>43</id><name>Queen St W/ Shaw St</name><terminalName>7072</terminalName><lastCommWithServer>1401483098059</lastCommWithServer><lat>43.644524</lat><long>-79.416519</long><installed>true</installed><locked>false</locked><installDate/><removalDate/><temporary>false</temporary><public>true</public><nbBikes>13</nbBikes><nbEmptyDocks>1</nbEmptyDocks><latestUpdateTime>1401483095206</latestUpdateTime></station><station><id>44</id><name>Spadina Ave/ Sussex Ave</name><terminalName>7074</terminalName><lastCommWithServer>1401483518713</lastCommWithServer><lat>43.664137</lat><long>-79.402496</long><installed>true</installed><locked>false</locked><installDate/><removalDate/><temporary>false</temporary><public>true</public><nbBikes>13</nbBikes><nbEmptyDocks>14</nbEmptyDocks><latestUpdateTime>1401483517379</latestUpdateTime></station><station><id>45</id><name>Queens Quay W / Dan Leckie Way</name><terminalName>7075</terminalName><lastCommWithServer>1401483572736</lastCommWithServer><lat>43.636533</lat><long>-79.395854</long><installed>true</installed><locked>false</locked><installDate/><removalDate/><temporary>false</temporary><public>true</public><nbBikes>17</nbBikes><nbEmptyDocks>7</nbEmptyDocks><latestUpdateTime>1401481881390</latestUpdateTime></station><station><id>46</id><name>York St / Queens Quay W</name><terminalName>7076</terminalName><lastCommWithServer>1401483089465</lastCommWithServer><lat>43.640132</lat><long>-79.380464</long><installed>true</installed><locked>false</locked><installDate/><removalDate/><temporary>false</temporary><public>true</public><nbBikes>23</nbBikes><nbEmptyDocks>4</nbEmptyDocks><latestUpdateTime>1401483087466</latestUpdateTime></station><station><id>47</id><name>Granby St / Yonge St</name><terminalName>7077</terminalName><lastCommWithServer>1401483224498</lastCommWithServer><lat>43.660576</lat><long>-79.382389</long><installed>true</installed><locked>false</locked><installDate/><removalDate/><temporary>false</temporary><public>true</public><nbBikes>1</nbBikes><nbEmptyDocks>17</nbEmptyDocks><latestUpdateTime>1401483222995</latestUpdateTime></station><station><id>48</id><name>Gerrard St E / Church St</name><terminalName>7079</terminalName><lastCommWithServer>1401482805404</lastCommWithServer><lat>43.659778</lat><long>-79.37978</long><installed>true</installed><locked>false</locked><installDate/><removalDate/><temporary>false</temporary><public>true</public><nbBikes>11</nbBikes><nbEmptyDocks>3</nbEmptyDocks><latestUpdateTime>1401482804106</latestUpdateTime></station><station><id>49</id><name>Widmer St / King St W</name><terminalName>7017</terminalName><lastCommWithServer>1401483086414</lastCommWithServer><lat>43.647313</lat><long>-79.391549</long><installed>true</installed><locked>false</locked><installDate/><removalDate/><temporary>false</temporary><public>true</public><nbBikes>17</nbBikes><nbEmptyDocks>1</nbEmptyDocks><latestUpdateTime>1401482240718</latestUpdateTime></station><station><id>50</id><name>Bremner Blvd / Rees St</name><terminalName>7018</terminalName><lastCommWithServer>1401483364306</lastCommWithServer><lat>43.641529</lat><long>-79.386741</long><installed>true</installed><locked>false</locked><installDate/><removalDate/><temporary>false</temporary><public>true</public><nbBikes>8</nbBikes><nbEmptyDocks>7</nbEmptyDocks><latestUpdateTime>1401483362101</latestUpdateTime></station><station><id>51</id><name>Fort York Blvd. and Capreol Crt</name><terminalName>7000</terminalName><lastCommWithServer>1401483482287</lastCommWithServer><lat>43.64021</lat><long>-79.394225</long><installed>true</installed><locked>false</locked><installDate/><removalDate/><temporary>false</temporary><public>true</public><nbBikes>10</nbBikes><nbEmptyDocks>20</nbEmptyDocks><latestUpdateTime>1401483480040</latestUpdateTime></station><station><id>52</id><name>Lower Jarvis St / The Esplanade</name><terminalName>7001</terminalName><lastCommWithServer>1401482998899</lastCommWithServer><lat>43.647992</lat><long>-79.370907</long><installed>true</installed><locked>false</locked><installDate/><removalDate/><temporary>false</temporary><public>true</public><nbBikes>13</nbBikes><nbEmptyDocks>2</nbEmptyDocks><latestUpdateTime>1401482997121</latestUpdateTime></station><station><id>53</id><name>University Ave / Elm St</name><terminalName>7004</terminalName><lastCommWithServer>1401483582526</lastCommWithServer><lat>43.656518</lat><long>-79.389099</long><installed>true</installed><locked>false</locked><installDate/><removalDate/><temporary>false</temporary><public>true</public><nbBikes>4</nbBikes><nbEmptyDocks>7</nbEmptyDocks><latestUpdateTime>1401483581533</latestUpdateTime></station><station><id>54</id><name>University Ave / King St W</name><terminalName>7005</terminalName><lastCommWithServer>1401483465225</lastCommWithServer><lat>43.648093</lat><long>-79.384749</long><installed>true</installed><locked>false</locked><installDate/><removalDate/><temporary>false</temporary><public>true</public><nbBikes>5</nbBikes><nbEmptyDocks>14</nbEmptyDocks><latestUpdateTime>1401483463878</latestUpdateTime></station><station><id>55</id><name>Wellington St / Portland St</name><terminalName>7011</terminalName><lastCommWithServer>1401483209762</lastCommWithServer><lat>43.642982</lat><long>-79.399256</long><installed>true</installed><locked>false</locked><installDate/><removalDate/><temporary>false</temporary><public>true</public><nbBikes>11</nbBikes><nbEmptyDocks>0</nbEmptyDocks><latestUpdateTime>1401480990255</latestUpdateTime></station><station><id>56</id><name>Sherbourne / Carlton (Allan Gardens)</name><terminalName>7014</terminalName><lastCommWithServer>1401483359752</lastCommWithServer><lat>43.663102</lat><long>-79.373181</long><installed>true</installed><locked>false</locked><installDate/><removalDate/><temporary>false</temporary><public>true</public><nbBikes>12</nbBikes><nbEmptyDocks>5</nbEmptyDocks><latestUpdateTime>1401483358208</latestUpdateTime></station><station><id>57</id><name>King St W / Bay St</name><terminalName>7015</terminalName><lastCommWithServer>1401483568376</lastCommWithServer><lat>43.64852</lat><long>-79.380576</long><installed>true</installed><locked>false</locked><installDate/><removalDate/><temporary>false</temporary><public>true</public><nbBikes>9</nbBikes><nbEmptyDocks>6</nbEmptyDocks><latestUpdateTime>1401482964472</latestUpdateTime></station><station><id>58</id><name>Queen St/ Ossington Ave</name><terminalName>7035</terminalName><lastCommWithServer>1401483008724</lastCommWithServer><lat>43.643975</lat><long>-79.419576</long><installed>true</installed><locked>false</locked><installDate/><removalDate/><temporary>false</temporary><public>true</public><nbBikes>22</nbBikes><nbEmptyDocks>1</nbEmptyDocks><latestUpdateTime>1401482267564</latestUpdateTime></station><station><id>59</id><name>Melinda St / Yonge St</name><terminalName>7036</terminalName><lastCommWithServer>1401483387812</lastCommWithServer><lat>43.648629</lat><long>-79.377748</long><installed>true</installed><locked>false</locked><installDate/><removalDate/><temporary>false</temporary><public>true</public><nbBikes>3</nbBikes><nbEmptyDocks>7</nbEmptyDocks><latestUpdateTime>1401483386180</latestUpdateTime></station><station><id>60</id><name>Euclid Ave/ Bloor St</name><terminalName>7040</terminalName><lastCommWithServer>1401482993284</lastCommWithServer><lat>43.6643</lat><long>-79.415</long><installed>true</installed><locked>false</locked><installDate/><removalDate/><temporary>false</temporary><public>true</public><nbBikes>7</nbBikes><nbEmptyDocks>12</nbEmptyDocks><latestUpdateTime>1401482366964</latestUpdateTime></station><station><id>61</id><name>Bay St / Albert St</name><terminalName>7021</terminalName><lastCommWithServer>1401483319745</lastCommWithServer><lat>43.653264</lat><long>-79.382458</long><installed>true</installed><locked>false</locked><installDate/><removalDate/><temporary>false</temporary><public>true</public><nbBikes>16</nbBikes><nbEmptyDocks>7</nbEmptyDocks><latestUpdateTime>1401483317652</latestUpdateTime></station><station><id>62</id><name>Niagara St./Queen W. (Richmond)</name><terminalName>7046</terminalName><lastCommWithServer>1401483313963</lastCommWithServer><lat>43.64534</lat><long>-79.409597</long><installed>true</installed><locked>false</locked><installDate/><removalDate/><temporary>false</temporary><public>true</public><nbBikes>9</nbBikes><nbEmptyDocks>3</nbEmptyDocks><latestUpdateTime>1401481623976</latestUpdateTime></station><station><id>63</id><name>University Ave / Gerrard St W</name><terminalName>7047</terminalName><lastCommWithServer>1401483580909</lastCommWithServer><lat>43.657763</lat><long>-79.389165</long><installed>true</installed><locked>false</locked><installDate/><removalDate/><temporary>false</temporary><public>true</public><nbBikes>5</nbBikes><nbEmptyDocks>5</nbEmptyDocks><latestUpdateTime>1401483051299</latestUpdateTime></station><station><id>64</id><name>Front/Yonge (Hockey Hall of Fame)</name><terminalName>7048</terminalName><lastCommWithServer>1401483236626</lastCommWithServer><lat>43.646144</lat><long>-79.377962</long><installed>true</installed><locked>false</locked><installDate/><removalDate/><temporary>false</temporary><public>true</public><nbBikes>25</nbBikes><nbEmptyDocks>12</nbEmptyDocks><latestUpdateTime>1401483235533</latestUpdateTime></station><station><id>65</id><name>Queen St / Portland St</name><terminalName>7049</terminalName><lastCommWithServer>1401483320002</lastCommWithServer><lat>43.6476</lat><long>-79.4015</long><installed>true</installed><locked>false</locked><installDate/><removalDate/><temporary>false</temporary><public>true</public><nbBikes>1</nbBikes><nbEmptyDocks>9</nbEmptyDocks><latestUpdateTime>1401483319102</latestUpdateTime></station><station><id>66</id><name>Richmond St E / Jarvis St</name><terminalName>7050</terminalName><lastCommWithServer>1401482802285</lastCommWithServer><lat>43.652634</lat><long>-79.374222</long><installed>true</installed><locked>false</locked><installDate/><removalDate/><temporary>false</temporary><public>true</public><nbBikes>7</nbBikes><nbEmptyDocks>4</nbEmptyDocks><latestUpdateTime>1401482274172</latestUpdateTime></station><station><id>67</id><name>Front St W / Blue Jays Way</name><terminalName>7059</terminalName><lastCommWithServer>1401483343988</lastCommWithServer><lat>43.643473</lat><long>-79.390477</long><installed>true</installed><locked>false</locked><installDate/><removalDate/><temporary>false</temporary><public>true</public><nbBikes>3</nbBikes><nbEmptyDocks>12</nbEmptyDocks><latestUpdateTime>1401482132420</latestUpdateTime></station><station><id>68</id><name>Queen St/Bay St </name><terminalName>7060</terminalName><lastCommWithServer>1401483212479</lastCommWithServer><lat>43.651952</lat><long>-79.382453</long><installed>true</installed><locked>false</locked><installDate/><removalDate/><temporary>false</temporary><public>true</public><nbBikes>1</nbBikes><nbEmptyDocks>10</nbEmptyDocks><latestUpdateTime>1401480153664</latestUpdateTime></station><station><id>69</id><name>University Ave / College St</name><terminalName>7062</terminalName><lastCommWithServer>1401482866884</lastCommWithServer><lat>43.659226</lat><long>-79.390213</long><installed>true</installed><locked>false</locked><installDate/><removalDate/><temporary>false</temporary><public>true</public><nbBikes>1</nbBikes><nbEmptyDocks>10</nbEmptyDocks><latestUpdateTime>1401482853609</latestUpdateTime></station><station><id>70</id><name>Trinity/ Front (Distillery)</name><terminalName>7064</terminalName><lastCommWithServer>1401483298820</lastCommWithServer><lat>43.6513</lat><long>-79.3603</long><installed>true</installed><locked>false</locked><installDate/><removalDate/><temporary>false</temporary><public>true</public><nbBikes>8</nbBikes><nbEmptyDocks>8</nbEmptyDocks><latestUpdateTime>1401483297337</latestUpdateTime></station><station><id>71</id><name>Bathurst/ Queens Quay (Island Airport)</name><terminalName>7071</terminalName><lastCommWithServer>1401482805863</lastCommWithServer><lat>43.6354</lat><long>-79.3984</long><installed>true</installed><locked>false</locked><installDate/><removalDate/><temporary>false</temporary><public>true</public><nbBikes>9</nbBikes><nbEmptyDocks>12</nbEmptyDocks><latestUpdateTime>1401481959134</latestUpdateTime></station><station><id>72</id><name>Spadina Ave/ Bremner Blvd</name><terminalName>7073</terminalName><lastCommWithServer>1401483462452</lastCommWithServer><lat>43.640867</lat><long>-79.392916</long><installed>true</installed><locked>false</locked><installDate/><removalDate/><temporary>false</temporary><public>true</public><nbBikes>14</nbBikes><nbEmptyDocks>1</nbEmptyDocks><latestUpdateTime>1401483460396</latestUpdateTime></station><station><id>73</id><name>Bay St / College St</name><terminalName>7006</terminalName><lastCommWithServer>1401483106068</lastCommWithServer><lat>43.660422</lat><long>-79.385441</long><installed>true</installed><locked>false</locked><installDate/><removalDate/><temporary>false</temporary><public>true</public><nbBikes>0</nbBikes><nbEmptyDocks>11</nbEmptyDocks><latestUpdateTime>1401483104622</latestUpdateTime></station><station><id>74</id><name>Bay St / Bloor St W</name><terminalName>7029</terminalName><lastCommWithServer>1401483045518</lastCommWithServer><lat>43.669429</lat><long>-79.389326</long><installed>true</installed><locked>false</locked><installDate/><removalDate/><temporary>false</temporary><public>true</public><nbBikes>11</nbBikes><nbEmptyDocks>1</nbEmptyDocks><latestUpdateTime>1401482577789</latestUpdateTime></station><station><id>75</id><name>Wellington St W / Bay St</name><terminalName>7052</terminalName><lastCommWithServer>1401483133303</lastCommWithServer><lat>43.647331</lat><long>-79.379673</long><installed>true</installed><locked>false</locked><installDate/><removalDate/><temporary>false</temporary><public>true</public><nbBikes>21</nbBikes><nbEmptyDocks>4</nbEmptyDocks><latestUpdateTime>1401483132198</latestUpdateTime></station><station><id>76</id><name>King St E / Jarvis St</name><terminalName>7009</terminalName><lastCommWithServer>1401483139563</lastCommWithServer><lat>43.650325</lat><long>-79.372287</long><installed>true</installed><locked>false</locked><installDate/><removalDate/><temporary>false</temporary><public>true</public><nbBikes>6</nbBikes><nbEmptyDocks>3</nbEmptyDocks><latestUpdateTime>1401482925847</latestUpdateTime></station><station><id>77</id><name>College St / Huron St</name><terminalName>7007</terminalName><lastCommWithServer>1401483066333</lastCommWithServer><lat>43.658148</lat><long>-79.398167</long><installed>true</installed><locked>false</locked><installDate/><removalDate/><temporary>false</temporary><public>true</public><nbBikes>2</nbBikes><nbEmptyDocks>9</nbEmptyDocks><latestUpdateTime>1401483063623</latestUpdateTime></station><station><id>78</id><name>College St / Major St</name><terminalName>7078</terminalName><lastCommWithServer>1401482918791</lastCommWithServer><lat>43.6576</lat><long>-79.4032</long><installed>true</installed><locked>false</locked><installDate/><removalDate/><temporary>false</temporary><public>true</public><nbBikes>8</nbBikes><nbEmptyDocks>3</nbEmptyDocks><latestUpdateTime>1401482917630</latestUpdateTime></station><station><id>79</id><name>Bay St / St Joseph St</name><terminalName>7026</terminalName><lastCommWithServer>1401483401900</lastCommWithServer><lat>43.665615</lat><long>-79.38758</long><installed>true</installed><locked>false</locked><installDate/><removalDate/><temporary>false</temporary><public>true</public><nbBikes>11</nbBikes><nbEmptyDocks>8</nbEmptyDocks><latestUpdateTime>1401482554834</latestUpdateTime></station><station><id>80</id><name>Bay St / Wellesley St W</name><terminalName>7030</terminalName><lastCommWithServer>1401483420746</lastCommWithServer><lat>43.664088</lat><long>-79.387095</long><installed>true</installed><locked>false</locked><installDate/><removalDate/><temporary>false</temporary><public>true</public><nbBikes>5</nbBikes><nbEmptyDocks>29</nbEmptyDocks><latestUpdateTime>1401483418565</latestUpdateTime></station><station><id>82</id><name>Parliament St/ Gerrard St</name><terminalName>7056</terminalName><lastCommWithServer>1401483498865</lastCommWithServer><lat>43.661149</lat><long>-79.366648</long><installed>true</installed><locked>false</locked><installDate/><removalDate/><temporary>false</temporary><public>true</public><nbBikes>16</nbBikes><nbEmptyDocks>9</nbEmptyDocks><latestUpdateTime>1401483497546</latestUpdateTime></station><station><id>83</id><name>Wellesley St W / Queens Park Cres W</name><terminalName>7008</terminalName><lastCommWithServer>1401482993102</lastCommWithServer><lat>43.66333</lat><long>-79.392891</long><installed>true</installed><locked>false</locked><installDate/><removalDate/><temporary>false</temporary><public>true</public><nbBikes>5</nbBikes><nbEmptyDocks>12</nbEmptyDocks><latestUpdateTime>1401482098205</latestUpdateTime></station></stations>