<?xml version='1.0' encoding='UTF-8'?><stations lastUpdate="1403737173502" version="2.0"><station><id>1</id><name>Jarvis St/ Carleton St</name><terminalName>7055</terminalName><lastCommWithServer>1403733374470</lastCommWithServer><lat>43.66207</lat><long>-79.37617</long><installed>true</installed><locked>false</locked><installDate/><removalDate/><temporary>false</temporary><public>true</public><nbBikes>7</nbBikes><nbEmptyDocks>7</nbEmptyDocks><latestUpdateTime>1403733372268</latestUpdateTime></station><station><id>5</id><name>Church St/ Alexander St</name><terminalName>7044</terminalName><lastCommWithServer>1403736885132</lastCommWithServer><lat>43.6636</lat><long>-79.3806</long><installed>true</installed><locked>false</locked><installDate/><removalDate/><temporary>false</temporary><public>true</public><nbBikes>13</nbBikes><nbEmptyDocks>1</nbEmptyDocks><latestUpdateTime>1403736883333</latestUpdateTime></station><station><id>6</id><name>Gould St/ Mutual St</name><terminalName>7028</terminalName><lastCommWithServer>1403736978801</lastCommWithServer><lat>43.6582</lat><long>-79.3768</long><installed>true</installed><locked>false</locked><installDate/><removalDate/><temporary>false</temporary><public>true</public><nbBikes>4</nbBikes><nbEmptyDocks>27</nbEmptyDocks><latestUpdateTime>1403736495118</latestUpdateTime></station><station><id>7</id><name>St George St / Bloor St W</name><terminalName>7002</terminalName><lastCommWithServer>1403736756982</lastCommWithServer><lat>43.667333</lat><long>-79.399429</long><installed>true</installed><locked>false</locked><installDate/><removalDate/><temporary>false</temporary><public>true</public><nbBikes>5</nbBikes><nbEmptyDocks>10</nbEmptyDocks><latestUpdateTime>1403735911337</latestUpdateTime></station><station><id>8</id><name>Madison Ave / Bloor St W</name><terminalName>7003</terminalName><lastCommWithServer>1403736468899</lastCommWithServer><lat>43.667158</lat><long>-79.402761</long><installed>true</installed><locked>false</locked><installDate/><removalDate/><temporary>false</temporary><public>true</public><nbBikes>14</nbBikes><nbEmptyDocks>0</nbEmptyDocks><latestUpdateTime>1403736194068</latestUpdateTime></station><station><id>9</id><name>King St W / Spadina Ave</name><terminalName>7010</terminalName><lastCommWithServer>1403737051055</lastCommWithServer><lat>43.645323</lat><long>-79.395003</long><installed>true</installed><locked>false</locked><installDate/><removalDate/><temporary>false</temporary><public>true</public><nbBikes>8</nbBikes><nbEmptyDocks>11</nbEmptyDocks><latestUpdateTime>1403737049122</latestUpdateTime></station><station><id>10</id><name>Elizabeth St / Edward St</name><terminalName>7012</terminalName><lastCommWithServer>1403736925977</lastCommWithServer><lat>43.656152</lat><long>-79.385225</long><installed>true</installed><locked>false</locked><installDate/><removalDate/><temporary>false</temporary><public>true</public><nbBikes>3</nbBikes><nbEmptyDocks>12</nbEmptyDocks><latestUpdateTime>1403733449487</latestUpdateTime></station><station><id>11</id><name>Scott St / The Esplanade</name><terminalName>7013</terminalName><lastCommWithServer>1403737139897</lastCommWithServer><lat>43.64656</lat><long>-79.375274</long><installed>true</installed><locked>false</locked><installDate/><removalDate/><temporary>false</temporary><public>true</public><nbBikes>19</nbBikes><nbEmptyDocks>0</nbEmptyDocks><latestUpdateTime>1403736583668</latestUpdateTime></station><station><id>12</id><name>Ferry Ramp / Queens Quay W</name><terminalName>7016</terminalName><lastCommWithServer>1403736354678</lastCommWithServer><lat>43.640823</lat><long>-79.376265</long><installed>true</installed><locked>false</locked><installDate/><removalDate/><temporary>false</temporary><public>true</public><nbBikes>15</nbBikes><nbEmptyDocks>8</nbEmptyDocks><latestUpdateTime>1403735508228</latestUpdateTime></station><station><id>13</id><name>Temperance St / Yonge St</name><terminalName>7019</terminalName><lastCommWithServer>1403736622860</lastCommWithServer><lat>43.650855</lat><long>-79.379492</long><installed>true</installed><locked>false</locked><installDate/><removalDate/><temporary>false</temporary><public>true</public><nbBikes>1</nbBikes><nbEmptyDocks>12</nbEmptyDocks><latestUpdateTime>1403736273591</latestUpdateTime></station><station><id>14</id><name>Simcoe St / Queen St W</name><terminalName>7022</terminalName><lastCommWithServer>1403737010607</lastCommWithServer><lat>43.650858</lat><long>-79.387582</long><installed>true</installed><locked>false</locked><installDate/><removalDate/><temporary>false</temporary><public>true</public><nbBikes>1</nbBikes><nbEmptyDocks>18</nbEmptyDocks><latestUpdateTime>1403737008797</latestUpdateTime></station><station><id>15</id><name>College St/ Borden St</name><terminalName>7023</terminalName><lastCommWithServer>1403736943079</lastCommWithServer><lat>43.6571</lat><long>-79.4056</long><installed>true</installed><locked>false</locked><installDate/><removalDate/><temporary>false</temporary><public>true</public><nbBikes>8</nbBikes><nbEmptyDocks>2</nbEmptyDocks><latestUpdateTime>1403735865447</latestUpdateTime></station><station><id>16</id><name>Huron St / Harbord St </name><terminalName>7024</terminalName><lastCommWithServer>1403736612619</lastCommWithServer><lat>43.663762</lat><long>-79.399782</long><installed>true</installed><locked>false</locked><installDate/><removalDate/><temporary>false</temporary><public>true</public><nbBikes>12</nbBikes><nbEmptyDocks>7</nbEmptyDocks><latestUpdateTime>1403736611018</latestUpdateTime></station><station><id>17</id><name>Ted Rogers Way / Bloor St E</name><terminalName>7025</terminalName><lastCommWithServer>1403736773465</lastCommWithServer><lat>43.671594</lat><long>-79.381074</long><installed>true</installed><locked>false</locked><installDate/><removalDate/><temporary>false</temporary><public>true</public><nbBikes>15</nbBikes><nbEmptyDocks>12</nbEmptyDocks><latestUpdateTime>1403736771107</latestUpdateTime></station><station><id>18</id><name>Phoebe St / Spadina Ave</name><terminalName>7020</terminalName><lastCommWithServer>1403736655581</lastCommWithServer><lat>43.650033</lat><long>-79.396555</long><installed>true</installed><locked>false</locked><installDate/><removalDate/><temporary>false</temporary><public>true</public><nbBikes>13</nbBikes><nbEmptyDocks>20</nbEmptyDocks><latestUpdateTime>1403735640082</latestUpdateTime></station><station><id>19</id><name>Beverly  St / Dundas St W</name><terminalName>7027</terminalName><lastCommWithServer>1403736993763</lastCommWithServer><lat>43.652823</lat><long>-79.393388</long><installed>true</installed><locked>false</locked><installDate/><removalDate/><temporary>false</temporary><public>true</public><nbBikes>11</nbBikes><nbEmptyDocks>15</nbEmptyDocks><latestUpdateTime>1403736992739</latestUpdateTime></station><station><id>20</id><name>Jarvis St / Isabella St</name><terminalName>7031</terminalName><lastCommWithServer>1403736441783</lastCommWithServer><lat>43.669192</lat><long>-79.379128</long><installed>true</installed><locked>false</locked><installDate/><removalDate/><temporary>false</temporary><public>true</public><nbBikes>2</nbBikes><nbEmptyDocks>20</nbEmptyDocks><latestUpdateTime>1403735650207</latestUpdateTime></station><station><id>21</id><name>Church St / Bloor St E</name><terminalName>7034</terminalName><lastCommWithServer>1403736357573</lastCommWithServer><lat>43.671389</lat><long>-79.382919</long><installed>true</installed><locked>false</locked><installDate/><removalDate/><temporary>false</temporary><public>true</public><nbBikes>1</nbBikes><nbEmptyDocks>14</nbEmptyDocks><latestUpdateTime>1403735510358</latestUpdateTime></station><station><id>22</id><name>Bathurst St/ Dundas St</name><terminalName>7037</terminalName><lastCommWithServer>1403737090989</lastCommWithServer><lat>43.6523</lat><long>-79.4058</long><installed>true</installed><locked>false</locked><installDate/><removalDate/><temporary>false</temporary><public>true</public><nbBikes>6</nbBikes><nbEmptyDocks>13</nbEmptyDocks><latestUpdateTime>1403734154645</latestUpdateTime></station><station><id>23</id><name>Yonge St / Dundas Sq</name><terminalName>7038</terminalName><lastCommWithServer>1403737062829</lastCommWithServer><lat>43.656053</lat><long>-79.380904</long><installed>true</installed><locked>false</locked><installDate/><removalDate/><temporary>false</temporary><public>true</public><nbBikes>5</nbBikes><nbEmptyDocks>8</nbEmptyDocks><latestUpdateTime>1403737060638</latestUpdateTime></station><station><id>24</id><name>Simcoe St / Dundas St W</name><terminalName>7039</terminalName><lastCommWithServer>1403737140548</lastCommWithServer><lat>43.653743</lat><long>-79.38882</long><installed>true</installed><locked>false</locked><installDate/><removalDate/><temporary>false</temporary><public>true</public><nbBikes>16</nbBikes><nbEmptyDocks>8</nbEmptyDocks><latestUpdateTime>1403737139362</latestUpdateTime></station><station><id>25</id><name>Edward St / Yonge St</name><terminalName>7041</terminalName><lastCommWithServer>1403736884665</lastCommWithServer><lat>43.65702</lat><long>-79.382249</long><installed>true</installed><locked>false</locked><installDate/><removalDate/><temporary>false</temporary><public>true</public><nbBikes>8</nbBikes><nbEmptyDocks>14</nbEmptyDocks><latestUpdateTime>1403736883062</latestUpdateTime></station><station><id>26</id><name>Sherbourne St/ Wellesley St</name><terminalName>7042</terminalName><lastCommWithServer>1403736487002</lastCommWithServer><lat>43.6673</lat><long>-79.374</long><installed>true</installed><locked>false</locked><installDate/><removalDate/><temporary>false</temporary><public>true</public><nbBikes>29</nbBikes><nbEmptyDocks>4</nbEmptyDocks><latestUpdateTime>1403736485347</latestUpdateTime></station><station><id>27</id><name>Lower Simcoe St / Lakeshore Blvd W</name><terminalName>7043</terminalName><lastCommWithServer>1403736994426</lastCommWithServer><lat>43.640016</lat><long>-79.383186</long><installed>true</installed><locked>false</locked><installDate/><removalDate/><temporary>false</temporary><public>true</public><nbBikes>13</nbBikes><nbEmptyDocks>0</nbEmptyDocks><latestUpdateTime>1403734342261</latestUpdateTime></station><station><id>28</id><name>Bond St / Queen St E</name><terminalName>7045</terminalName><lastCommWithServer>1403736673571</lastCommWithServer><lat>43.653236</lat><long>-79.376716</long><installed>true</installed><locked>false</locked><installDate/><removalDate/><temporary>false</temporary><public>true</public><nbBikes>5</nbBikes><nbEmptyDocks>6</nbEmptyDocks><latestUpdateTime>1403736647900</latestUpdateTime></station><station><id>29</id><name>Wellesley St E. / Yonge St</name><terminalName>7051</terminalName><lastCommWithServer>1403736423877</lastCommWithServer><lat>43.664953</lat><long>-79.384423</long><installed>true</installed><locked>false</locked><installDate/><removalDate/><temporary>false</temporary><public>true</public><nbBikes>15</nbBikes><nbEmptyDocks>2</nbEmptyDocks><latestUpdateTime>1403736423310</latestUpdateTime></station><station><id>30</id><name>Augusta Ave / Dundas St W</name><terminalName>7032</terminalName><lastCommWithServer>1403736462660</lastCommWithServer><lat>43.652175</lat><long>-79.400913</long><installed>true</installed><locked>false</locked><installDate/><removalDate/><temporary>false</temporary><public>true</public><nbBikes>6</nbBikes><nbEmptyDocks>9</nbEmptyDocks><latestUpdateTime>1403736461315</latestUpdateTime></station><station><id>31</id><name>Metro Hall Plaza</name><terminalName>7053</terminalName><lastCommWithServer>1403737123822</lastCommWithServer><lat>43.645859</lat><long>-79.38783</long><installed>true</installed><locked>false</locked><installDate/><removalDate/><temporary>false</temporary><public>true</public><nbBikes>7</nbBikes><nbEmptyDocks>8</nbEmptyDocks><latestUpdateTime>1403737122015</latestUpdateTime></station><station><id>32</id><name>Dundonald St./ Yonge St</name><terminalName>7054</terminalName><lastCommWithServer>1403737139996</lastCommWithServer><lat>43.665819</lat><long>-79.384755</long><installed>true</installed><locked>false</locked><installDate/><removalDate/><temporary>false</temporary><public>true</public><nbBikes>0</nbBikes><nbEmptyDocks>11</nbEmptyDocks><latestUpdateTime>1403735450069</latestUpdateTime></station><station><id>33</id><name>Simcoe St / Wellington St W</name><terminalName>7057</terminalName><lastCommWithServer>1403736992009</lastCommWithServer><lat>43.645533</lat><long>-79.3854</long><installed>true</installed><locked>false</locked><installDate/><removalDate/><temporary>false</temporary><public>true</public><nbBikes>15</nbBikes><nbEmptyDocks>8</nbEmptyDocks><latestUpdateTime>1403736990035</latestUpdateTime></station><station><id>34</id><name>Yonge St / Alexander St </name><terminalName>7058</terminalName><lastCommWithServer>1403736972829</lastCommWithServer><lat>43.662915</lat><long>-79.383316</long><installed>true</installed><locked>false</locked><installDate/><removalDate/><temporary>false</temporary><public>true</public><nbBikes>4</nbBikes><nbEmptyDocks>3</nbEmptyDocks><latestUpdateTime>1403734946437</latestUpdateTime></station><station><id>35</id><name>Bloor St / Brunswick Ave</name><terminalName>7061</terminalName><lastCommWithServer>1403736889141</lastCommWithServer><lat>43.665876</lat><long>-79.407224</long><installed>true</installed><locked>false</locked><installDate/><removalDate/><temporary>false</temporary><public>true</public><nbBikes>14</nbBikes><nbEmptyDocks>11</nbEmptyDocks><latestUpdateTime>1403734261923</latestUpdateTime></station><station><id>36</id><name>Queens Park / Bloor St W</name><terminalName>7063</terminalName><lastCommWithServer>1403736784365</lastCommWithServer><lat>43.668327</lat><long>-79.39355</long><installed>true</installed><locked>false</locked><installDate/><removalDate/><temporary>false</temporary><public>true</public><nbBikes>7</nbBikes><nbEmptyDocks>12</nbEmptyDocks><latestUpdateTime>1403736783193</latestUpdateTime></station><station><id>37</id><name>Dundas St/ Parliament St</name><terminalName>7065</terminalName><lastCommWithServer>1403736599015</lastCommWithServer><lat>43.659575</lat><long>-79.365769</long><installed>true</installed><locked>false</locked><installDate/><removalDate/><temporary>false</temporary><public>true</public><nbBikes>6</nbBikes><nbEmptyDocks>5</nbEmptyDocks><latestUpdateTime>1403735752304</latestUpdateTime></station><station><id>38</id><name>Willcocks St / St. George St</name><terminalName>7066</terminalName><lastCommWithServer>1403736430559</lastCommWithServer><lat>43.662237</lat><long>-79.397716</long><installed>true</installed><locked>false</locked><installDate/><removalDate/><temporary>false</temporary><public>true</public><nbBikes>1</nbBikes><nbEmptyDocks>16</nbEmptyDocks><latestUpdateTime>1403736429121</latestUpdateTime></station><station><id>39</id><name>Yonge St. / Lakeshore Ave. E.</name><terminalName>7067</terminalName><lastCommWithServer>1403736923149</lastCommWithServer><lat>43.643795</lat><long>-79.375413</long><installed>true</installed><locked>false</locked><installDate/><removalDate/><temporary>false</temporary><public>true</public><nbBikes>20</nbBikes><nbEmptyDocks>19</nbEmptyDocks><latestUpdateTime>1403736921432</latestUpdateTime></station><station><id>40</id><name>Dockside Dr / Queens Quay E.</name><terminalName>7068</terminalName><lastCommWithServer>1403737171432</lastCommWithServer><lat>43.644272</lat><long>-79.367766</long><installed>true</installed><locked>false</locked><installDate/><removalDate/><temporary>false</temporary><public>true</public><nbBikes>8</nbBikes><nbEmptyDocks>19</nbEmptyDocks><latestUpdateTime>1403737169809</latestUpdateTime></station><station><id>41</id><name>Queen St W / Spadina Ave</name><terminalName>7069</terminalName><lastCommWithServer>1403736334231</lastCommWithServer><lat>43.649147</lat><long>-79.395504</long><installed>true</installed><locked>false</locked><installDate/><removalDate/><temporary>false</temporary><public>true</public><nbBikes>6</nbBikes><nbEmptyDocks>5</nbEmptyDocks><latestUpdateTime>1403735603158</latestUpdateTime></station><station><id>42</id><name>25 York St</name><terminalName>7070</terminalName><lastCommWithServer>1403736414991</lastCommWithServer><lat>43.643566</lat><long>-79.380298</long><installed>true</installed><locked>false</locked><installDate/><removalDate/><temporary>false</temporary><public>true</public><nbBikes>10</nbBikes><nbEmptyDocks>1</nbEmptyDocks><latestUpdateTime>1403736413097</latestUpdateTime></station><station><id>43</id><name>Queen St W/ Shaw St</name><terminalName>7072</terminalName><lastCommWithServer>1403737086033</lastCommWithServer><lat>43.644524</lat><long>-79.416519</long><installed>true</installed><locked>false</locked><installDate/><removalDate/><temporary>false</temporary><public>true</public><nbBikes>12</nbBikes><nbEmptyDocks>2</nbEmptyDocks><latestUpdateTime>1403737083695</latestUpdateTime></station><station><id>44</id><name>Spadina Ave/ Sussex Ave</name><terminalName>7074</terminalName><lastCommWithServer>1403736719753</lastCommWithServer><lat>43.664137</lat><long>-79.402496</long><installed>true</installed><locked>false</locked><installDate/><removalDate/><temporary>false</temporary><public>true</public><nbBikes>19</nbBikes><nbEmptyDocks>8</nbEmptyDocks><latestUpdateTime>1403735029066</latestUpdateTime></station><station><id>45</id><name>Queens Quay W / Dan Leckie Way</name><terminalName>7075</terminalName><lastCommWithServer>1403736419803</lastCommWithServer><lat>43.636533</lat><long>-79.395854</long><installed>true</installed><locked>false</locked><installDate/><removalDate/><temporary>false</temporary><public>true</public><nbBikes>21</nbBikes><nbEmptyDocks>5</nbEmptyDocks><latestUpdateTime>1403735573851</latestUpdateTime></station><station><id>46</id><name>York St / Queens Quay W</name><terminalName>7076</terminalName><lastCommWithServer>1403736971045</lastCommWithServer><lat>43.640132</lat><long>-79.380464</long><installed>true</installed><locked>false</locked><installDate/><removalDate/><temporary>false</temporary><public>true</public><nbBikes>23</nbBikes><nbEmptyDocks>3</nbEmptyDocks><latestUpdateTime>1403736969912</latestUpdateTime></station><station><id>47</id><name>Granby St / Yonge St</name><terminalName>7077</terminalName><lastCommWithServer>1403736656025</lastCommWithServer><lat>43.660576</lat><long>-79.382389</long><installed>true</installed><locked>false</locked><installDate/><removalDate/><temporary>false</temporary><public>true</public><nbBikes>9</nbBikes><nbEmptyDocks>10</nbEmptyDocks><latestUpdateTime>1403736654642</latestUpdateTime></station><station><id>48</id><name>Gerrard St E / Church St</name><terminalName>7079</terminalName><lastCommWithServer>1403736474628</lastCommWithServer><lat>43.659778</lat><long>-79.37978</long><installed>true</installed><locked>false</locked><installDate/><removalDate/><temporary>false</temporary><public>true</public><nbBikes>15</nbBikes><nbEmptyDocks>0</nbEmptyDocks><latestUpdateTime>1403736472848</latestUpdateTime></station><station><id>49</id><name>Widmer St / King St W</name><terminalName>7017</terminalName><lastCommWithServer>1403736989633</lastCommWithServer><lat>43.647313</lat><long>-79.391549</long><installed>true</installed><locked>false</locked><installDate/><removalDate/><temporary>false</temporary><public>true</public><nbBikes>13</nbBikes><nbEmptyDocks>6</nbEmptyDocks><latestUpdateTime>1403736987678</latestUpdateTime></station><station><id>50</id><name>Bremner Blvd / Rees St</name><terminalName>7018</terminalName><lastCommWithServer>1403737099551</lastCommWithServer><lat>43.641529</lat><long>-79.386741</long><installed>true</installed><locked>false</locked><installDate/><removalDate/><temporary>false</temporary><public>true</public><nbBikes>10</nbBikes><nbEmptyDocks>5</nbEmptyDocks><latestUpdateTime>1403737097527</latestUpdateTime></station><station><id>51</id><name>Ft. York/Capreol Crt.</name><terminalName>7000</terminalName><lastCommWithServer>1403736991761</lastCommWithServer><lat>43.639832</lat><long>-79.395954</long><installed>true</installed><locked>false</locked><installDate/><removalDate/><temporary>false</temporary><public>true</public><nbBikes>14</nbBikes><nbEmptyDocks>17</nbEmptyDocks><latestUpdateTime>1403736989996</latestUpdateTime></station><station><id>52</id><name>Lower Jarvis St / The Esplanade</name><terminalName>7001</terminalName><lastCommWithServer>1403736975370</lastCommWithServer><lat>43.647992</lat><long>-79.370907</long><installed>true</installed><locked>false</locked><installDate/><removalDate/><temporary>false</temporary><public>true</public><nbBikes>7</nbBikes><nbEmptyDocks>7</nbEmptyDocks><latestUpdateTime>1403736973589</latestUpdateTime></station><station><id>53</id><name>University Ave / Elm St</name><terminalName>7004</terminalName><lastCommWithServer>1403736821260</lastCommWithServer><lat>43.656518</lat><long>-79.389099</long><installed>true</installed><locked>false</locked><installDate/><removalDate/><temporary>false</temporary><public>true</public><nbBikes>1</nbBikes><nbEmptyDocks>10</nbEmptyDocks><latestUpdateTime>1403736820163</latestUpdateTime></station><station><id>54</id><name>University Ave / King St W</name><terminalName>7005</terminalName><lastCommWithServer>1403736933861</lastCommWithServer><lat>43.648093</lat><long>-79.384749</long><installed>true</installed><locked>false</locked><installDate/><removalDate/><temporary>false</temporary><public>true</public><nbBikes>12</nbBikes><nbEmptyDocks>7</nbEmptyDocks><latestUpdateTime>1403736087621</latestUpdateTime></station><station><id>55</id><name>Wellington St / Portland St</name><terminalName>7011</terminalName><lastCommWithServer>1403736613079</lastCommWithServer><lat>43.642982</lat><long>-79.399256</long><installed>true</installed><locked>false</locked><installDate/><removalDate/><temporary>false</temporary><public>true</public><nbBikes>10</nbBikes><nbEmptyDocks>1</nbEmptyDocks><latestUpdateTime>1403735934279</latestUpdateTime></station><station><id>56</id><name>Sherbourne / Carlton (Allan Gardens)</name><terminalName>7014</terminalName><lastCommWithServer>1403737158846</lastCommWithServer><lat>43.663102</lat><long>-79.373181</long><installed>true</installed><locked>false</locked><installDate/><removalDate/><temporary>false</temporary><public>true</public><nbBikes>16</nbBikes><nbEmptyDocks>1</nbEmptyDocks><latestUpdateTime>1403732801076</latestUpdateTime></station><station><id>57</id><name>King St W / Bay St</name><terminalName>7015</terminalName><lastCommWithServer>1403736417192</lastCommWithServer><lat>43.64852</lat><long>-79.380576</long><installed>true</installed><locked>false</locked><installDate/><removalDate/><temporary>false</temporary><public>true</public><nbBikes>0</nbBikes><nbEmptyDocks>15</nbEmptyDocks><latestUpdateTime>1403736415561</latestUpdateTime></station><station><id>58</id><name>Queen St/ Ossington Ave</name><terminalName>7035</terminalName><lastCommWithServer>1403737016816</lastCommWithServer><lat>43.643975</lat><long>-79.419576</long><installed>true</installed><locked>false</locked><installDate/><removalDate/><temporary>false</temporary><public>true</public><nbBikes>20</nbBikes><nbEmptyDocks>2</nbEmptyDocks><latestUpdateTime>1403737014307</latestUpdateTime></station><station><id>59</id><name>Melinda St / Yonge St</name><terminalName>7036</terminalName><lastCommWithServer>1403736740152</lastCommWithServer><lat>43.648629</lat><long>-79.377748</long><installed>true</installed><locked>false</locked><installDate/><removalDate/><temporary>false</temporary><public>true</public><nbBikes>3</nbBikes><nbEmptyDocks>7</nbEmptyDocks><latestUpdateTime>1403736738657</latestUpdateTime></station><station><id>60</id><name>Euclid Ave/ Bloor St</name><terminalName>7040</terminalName><lastCommWithServer>1403736602923</lastCommWithServer><lat>43.6643</lat><long>-79.415</long><installed>true</installed><locked>false</locked><installDate/><removalDate/><temporary>false</temporary><public>true</public><nbBikes>8</nbBikes><nbEmptyDocks>9</nbEmptyDocks><latestUpdateTime>1403736600408</latestUpdateTime></station><station><id>61</id><name>Bay St / Albert St</name><terminalName>7021</terminalName><lastCommWithServer>1403737070534</lastCommWithServer><lat>43.653264</lat><long>-79.382458</long><installed>true</installed><locked>false</locked><installDate/><removalDate/><temporary>false</temporary><public>true</public><nbBikes>1</nbBikes><nbEmptyDocks>22</nbEmptyDocks><latestUpdateTime>1403735712061</latestUpdateTime></station><station><id>62</id><name>Niagara St./Queen W. (Richmond)</name><terminalName>7046</terminalName><lastCommWithServer>1403736836138</lastCommWithServer><lat>43.64534</lat><long>-79.409597</long><installed>true</installed><locked>false</locked><installDate/><removalDate/><temporary>false</temporary><public>true</public><nbBikes>15</nbBikes><nbEmptyDocks>0</nbEmptyDocks><latestUpdateTime>1403736834680</latestUpdateTime></station><station><id>63</id><name>University Ave / Gerrard St W</name><terminalName>7047</terminalName><lastCommWithServer>1403736523603</lastCommWithServer><lat>43.657763</lat><long>-79.389165</long><installed>true</installed><locked>false</locked><installDate/><removalDate/><temporary>false</temporary><public>true</public><nbBikes>1</nbBikes><nbEmptyDocks>10</nbEmptyDocks><latestUpdateTime>1403736522622</latestUpdateTime></station><station><id>64</id><name>Front/Yonge (Hockey Hall of Fame)</name><terminalName>7048</terminalName><lastCommWithServer>1403737122335</lastCommWithServer><lat>43.646144</lat><long>-79.377962</long><installed>true</installed><locked>false</locked><installDate/><removalDate/><temporary>false</temporary><public>true</public><nbBikes>29</nbBikes><nbEmptyDocks>9</nbEmptyDocks><latestUpdateTime>1403737119680</latestUpdateTime></station><station><id>65</id><name>Queen St / Portland St</name><terminalName>7049</terminalName><lastCommWithServer>1403736339426</lastCommWithServer><lat>43.6476</lat><long>-79.4015</long><installed>true</installed><locked>false</locked><installDate/><removalDate/><temporary>false</temporary><public>true</public><nbBikes>2</nbBikes><nbEmptyDocks>9</nbEmptyDocks><latestUpdateTime>1403736337849</latestUpdateTime></station><station><id>66</id><name>Richmond St E / Jarvis St</name><terminalName>7050</terminalName><lastCommWithServer>1403737019906</lastCommWithServer><lat>43.652634</lat><long>-79.374222</long><installed>true</installed><locked>false</locked><installDate/><removalDate/><temporary>false</temporary><public>true</public><nbBikes>8</nbBikes><nbEmptyDocks>2</nbEmptyDocks><latestUpdateTime>1403737018099</latestUpdateTime></station><station><id>67</id><name>Front St W / Blue Jays Way</name><terminalName>7059</terminalName><lastCommWithServer>1403736627769</lastCommWithServer><lat>43.643473</lat><long>-79.390477</long><installed>true</installed><locked>false</locked><installDate/><removalDate/><temporary>false</temporary><public>true</public><nbBikes>12</nbBikes><nbEmptyDocks>0</nbEmptyDocks><latestUpdateTime>1403736626832</latestUpdateTime></station><station><id>68</id><name>Princess Ave / Adelaide St</name><terminalName>7060</terminalName><lastCommWithServer>1403737134859</lastCommWithServer><lat>43.652123</lat><long>-79.367139</long><installed>true</installed><locked>false</locked><installDate/><removalDate/><temporary>false</temporary><public>true</public><nbBikes>7</nbBikes><nbEmptyDocks>12</nbEmptyDocks><latestUpdateTime>1403737133353</latestUpdateTime></station><station><id>69</id><name>University Ave / College St</name><terminalName>7062</terminalName><lastCommWithServer>1403736684398</lastCommWithServer><lat>43.659226</lat><long>-79.390213</long><installed>true</installed><locked>false</locked><installDate/><removalDate/><temporary>false</temporary><public>true</public><nbBikes>1</nbBikes><nbEmptyDocks>10</nbEmptyDocks><latestUpdateTime>1403734154222</latestUpdateTime></station><station><id>70</id><name>Trinity/ Front (Distillery)</name><terminalName>7064</terminalName><lastCommWithServer>1403737142332</lastCommWithServer><lat>43.6513</lat><long>-79.3603</long><installed>true</installed><locked>false</locked><installDate/><removalDate/><temporary>false</temporary><public>true</public><nbBikes>10</nbBikes><nbEmptyDocks>9</nbEmptyDocks><latestUpdateTime>1403737140692</latestUpdateTime></station><station><id>71</id><name>Bathurst/ Queens Quay (Island Airport)</name><terminalName>7071</terminalName><lastCommWithServer>1403736445585</lastCommWithServer><lat>43.6354</lat><long>-79.3984</long><installed>true</installed><locked>false</locked><installDate/><removalDate/><temporary>false</temporary><public>true</public><nbBikes>20</nbBikes><nbEmptyDocks>2</nbEmptyDocks><latestUpdateTime>1403736443625</latestUpdateTime></station><station><id>72</id><name>Bremner/Spadina</name><terminalName>7073</terminalName><lastCommWithServer>1403737171683</lastCommWithServer><lat>43.640903</lat><long>-79.392895</long><installed>true</installed><locked>false</locked><installDate/><removalDate/><temporary>false</temporary><public>true</public><nbBikes>13</nbBikes><nbEmptyDocks>2</nbEmptyDocks><latestUpdateTime>1403737169527</latestUpdateTime></station><station><id>73</id><name>Bay St / College St</name><terminalName>7006</terminalName><lastCommWithServer>1403736999727</lastCommWithServer><lat>43.660422</lat><long>-79.385441</long><installed>true</installed><locked>false</locked><installDate/><removalDate/><temporary>false</temporary><public>true</public><nbBikes>4</nbBikes><nbEmptyDocks>7</nbEmptyDocks><latestUpdateTime>1403736153215</latestUpdateTime></station><station><id>74</id><name>Bay St / Bloor St W</name><terminalName>7029</terminalName><lastCommWithServer>1403736601359</lastCommWithServer><lat>43.669429</lat><long>-79.389326</long><installed>true</installed><locked>false</locked><installDate/><removalDate/><temporary>false</temporary><public>true</public><nbBikes>4</nbBikes><nbEmptyDocks>9</nbEmptyDocks><latestUpdateTime>1403736598336</latestUpdateTime></station><station><id>75</id><name>Wellington St W / Bay St</name><terminalName>7052</terminalName><lastCommWithServer>1403736739541</lastCommWithServer><lat>43.647331</lat><long>-79.379673</long><installed>true</installed><locked>false</locked><installDate/><removalDate/><temporary>false</temporary><public>true</public><nbBikes>13</nbBikes><nbEmptyDocks>13</nbEmptyDocks><latestUpdateTime>1403736738038</latestUpdateTime></station><station><id>76</id><name>King St E / Jarvis St</name><terminalName>7009</terminalName><lastCommWithServer>1403736942366</lastCommWithServer><lat>43.650325</lat><long>-79.372287</long><installed>true</installed><locked>false</locked><installDate/><removalDate/><temporary>false</temporary><public>true</public><nbBikes>5</nbBikes><nbEmptyDocks>6</nbEmptyDocks><latestUpdateTime>1403736940721</latestUpdateTime></station><station><id>77</id><name>College St / Huron St</name><terminalName>7007</terminalName><lastCommWithServer>1403736531251</lastCommWithServer><lat>43.658148</lat><long>-79.398167</long><installed>true</installed><locked>false</locked><installDate/><removalDate/><temporary>false</temporary><public>true</public><nbBikes>1</nbBikes><nbEmptyDocks>10</nbEmptyDocks><latestUpdateTime>1403735684454</latestUpdateTime></station><station><id>78</id><name>College St / Major St</name><terminalName>7078</terminalName><lastCommWithServer>1403737074432</lastCommWithServer><lat>43.6576</lat><long>-79.4032</long><installed>true</installed><locked>false</locked><installDate/><removalDate/><temporary>false</temporary><public>true</public><nbBikes>1</nbBikes><nbEmptyDocks>10</nbEmptyDocks><latestUpdateTime>1403737073560</latestUpdateTime></station><station><id>79</id><name>Bay St / St Joseph St</name><terminalName>7026</terminalName><lastCommWithServer>1403736566001</lastCommWithServer><lat>43.665615</lat><long>-79.38758</long><installed>true</installed><locked>false</locked><installDate/><removalDate/><temporary>false</temporary><public>true</public><nbBikes>5</nbBikes><nbEmptyDocks>14</nbEmptyDocks><latestUpdateTime>1403735979034</latestUpdateTime></station><station><id>80</id><name>Bay St / Wellesley St W</name><terminalName>7030</terminalName><lastCommWithServer>1403736511204</lastCommWithServer><lat>43.664088</lat><long>-79.387095</long><installed>true</installed><locked>false</locked><installDate/><removalDate/><temporary>false</temporary><public>true</public><nbBikes>10</nbBikes><nbEmptyDocks>25</nbEmptyDocks><latestUpdateTime>1403736509675</latestUpdateTime></station><station><id>82</id><name>Parliament St/ Gerrard St</name><terminalName>7056</terminalName><lastCommWithServer>1403737137040</lastCommWithServer><lat>43.661149</lat><long>-79.366648</long><installed>true</installed><locked>false</locked><installDate/><removalDate/><temporary>false</temporary><public>true</public><nbBikes>9</nbBikes><nbEmptyDocks>18</nbEmptyDocks><latestUpdateTime>1403737135635</latestUpdateTime></station><station><id>83</id><name>Wellesley St W / Queens Park Cres W</name><terminalName>7008</terminalName><lastCommWithServer>1403736855137</lastCommWithServer><lat>43.66333</lat><long>-79.392891</long><installed>true</installed><locked>false</locked><installDate/><removalDate/><temporary>false</temporary><public>true</public><nbBikes>1</nbBikes><nbEmptyDocks>17</nbEmptyDocks><latestUpdateTime>1403736114933</latestUpdateTime></station></stations>